{"displayFieldName":"NAME","fieldAliases":{"NAME":"NAME","ADDRESS":"ADDRESS","ZIPCODE":"ZIPCODE"},"geometryType":"esriGeometryPoint","spatialReference":{"wkid":4326,"latestWkid":4326},"fields":[{"name":"NAME","type":"esriFieldTypeString","alias":"NAME","length":60},{"name":"ADDRESS","type":"esriFieldTypeString","alias":"ADDRESS","length":60},{"name":"ZIPCODE","type":"esriFieldTypeString","alias":"ZIPCODE","length":5}],"features":[{"attributes":{"NAME":"Northshore Public Health at Totem Lake","ADDRESS":"13030 121st Way NE","ZIPCODE":"98034"},"geometry":{"x":-122.17862057399832,"y":47.717623575281756}},{"attributes":{"NAME":"Downtown Public Health Center","ADDRESS":"2142 4th Ave","ZIPCODE":"98121"},"geometry":{"x":-122.34216518431893,"y":47.614598966805858}},{"attributes":{"NAME":"Renton Public Health Center","ADDRESS":"3201 NE 7th St","ZIPCODE":"98056"},"geometry":{"x":-122.17609537816277,"y":47.494829778254811}},{"attributes":{"NAME":"Public Health Primary Care at Navos","ADDRESS":"1210 SW 136th St","ZIPCODE":"98166"},"geometry":{"x":-122.34985236506571,"y":47.481755494647487}},{"attributes":{"NAME":"Eastgate Public Health Center","ADDRESS":"14350 SE Eastgate Way","ZIPCODE":"98007"},"geometry":{"x":-122.14988076242676,"y":47.581159291714833}},{"attributes":{"NAME":"Federal Way Public Health Center","ADDRESS":"33431 13th Pl S","ZIPCODE":"98003"},"geometry":{"x":-122.3178559935667,"y":47.301956637416694}},{"attributes":{"NAME":"North Seattle Dental Clinic","ADDRESS":"12359 Lake City Way NE","ZIPCODE":"98125"},"geometry":{"x":-122.29575165507345,"y":47.718985430038536}},{"attributes":{"NAME":"Columbia City Center for Health","ADDRESS":"4400 37th Ave S","ZIPCODE":"98118"},"geometry":{"x":-122.28574572117184,"y":47.56390552906835}},{"attributes":{"NAME":"Kent Public Health Center","ADDRESS":"25742 104th Ave SE","ZIPCODE":"98030"},"geometry":{"x":-122.20073571589404,"y":47.370877113235203}},{"attributes":{"NAME":"Birch Creek Public Health Center","ADDRESS":"13111 SE 274th St","ZIPCODE":"98030"},"geometry":{"x":-122.16619063688046,"y":47.355583334798858}},{"attributes":{"NAME":"Meridian Center for Health","ADDRESS":"10501 Meridian Ave N","ZIPCODE":"98133"},"geometry":{"x":-122.33483193750146,"y":47.705654124780317}},{"attributes":{"NAME":"Auburn Public Health Center","ADDRESS":"901 Auburn Way N","ZIPCODE":"98002"},"geometry":{"x":-122.22327770932334,"y":47.316187042103302}},{"attributes":{"NAME":"White Center Public Health Center","ADDRESS":"9934 8th Ave SW","ZIPCODE":"98106"},"geometry":{"x":-122.34498244536404,"y":47.514319135670597}}]}
