{
"type": "FeatureCollection",
"name": "chc_spdf",
"features": [
{ "type": "Feature", "id": 1, "properties": { "Name": "The Center for Pediatric Dentistry", "Address": "6222 NE 74th Street, Seattle, WA" }, "geometry": { "type": "Point", "coordinates": [ -122.262244117228533, 47.68253895 ] } },
{ "type": "Feature", "id": 2, "properties": { "Name": "CDCHC - Carolyn Downs Family Medical Center ", "Address": "2101 East Yesler Way, Seattle, WA 98122" }, "geometry": { "type": "Point", "coordinates": [ -122.3044505, 47.6014846 ] } },
{ "type": "Feature", "id": 3, "properties": { "Name": "Country Doctor Community Clinic ", "Address": "500 19th Ave East, Seattle, WA 98112" }, "geometry": { "type": "Point", "coordinates": [ -122.3069809, 47.623424 ] } },
{ "type": "Feature", "id": 4, "properties": { "Name": "HealthPoint - Auburn ", "Address": "126 Auburn Ave, Auburn, WA 98002" }, "geometry": { "type": "Point", "coordinates": [ -122.2274771, 47.3089196 ] } },
{ "type": "Feature", "id": 5, "properties": { "Name": "HealthPoint - Auburn North ", "Address": "923 Auburn Way North, Auburn, WA 98002" }, "geometry": { "type": "Point", "coordinates": [ -122.222420356202761, 47.31711845 ] } },
{ "type": "Feature", "id": 6, "properties": { "Name": "HealthPoint - Bothell ", "Address": "10414 Beardslee Blvd, Bothell, WA 98011" }, "geometry": { "type": "Point", "coordinates": [ -122.2006011, 47.7609569 ] } },
{ "type": "Feature", "id": 7, "properties": { "Name": "HealthPoint - Cynthia A. Green Family Center ", "Address": "12704 76th Avenue South, WA 98178" }, "geometry": { "type": "Point", "coordinates": [ -122.238029868838282, 47.489158 ] } },
{ "type": "Feature", "id": 8, "properties": { "Name": "HealthPoint - Evergreen", "Address": "830 SW 116th St, WA 98146" }, "geometry": { "type": "Point", "coordinates": [ -122.346601926253641, 47.4997383 ] } },
{ "type": "Feature", "id": 9, "properties": { "Name": "HealthPoint - Federal Way ", "Address": "33431 13th Place South, Federal Way, WA 98003" }, "geometry": { "type": "Point", "coordinates": [ -122.317909545136743, 47.3019348 ] } },
{ "type": "Feature", "id": 10, "properties": { "Name": "HealthPoint - Kent ", "Address": "403 East Meeker St, Kent, WA 98030" }, "geometry": { "type": "Point", "coordinates": [ -122.229319703929946, 47.38193815 ] } },
{ "type": "Feature", "id": 11, "properties": { "Name": "HealthPoint - Kent Urgent Care ", "Address": "219 State Avenue North, WA 98030" }, "geometry": { "type": "Point", "coordinates": [ -122.903350716764365, 47.045564285549048 ] } },
{ "type": "Feature", "id": 12, "properties": { "Name": "HealthPoint - Midway ", "Address": "26401 Pacific Highway South, Des Moines, WA 98198" }, "geometry": { "type": "Point", "coordinates": [ -122.306202735327858, 47.3652104 ] } },
{ "type": "Feature", "id": 13, "properties": { "Name": "HealthPoint - Redmond ", "Address": "16345 NE 87th St, Redmond, WA 98052" }, "geometry": { "type": "Point", "coordinates": [ -122.122176515151523, 47.679864479797978 ] } },
{ "type": "Feature", "id": 14, "properties": { "Name": "HealthPoint - Renton ", "Address": "200 South 2nd St, Renton, WA 98057" }, "geometry": { "type": "Point", "coordinates": [ -122.214860250212098, 47.4816202 ] } },
{ "type": "Feature", "id": 15, "properties": { "Name": "HealthPoint - Renton High School ", "Address": "400 S 2nd St., Renton, WA 98057" }, "geometry": { "type": "Point", "coordinates": [ -122.211532972036395, 47.4821212 ] } },
{ "type": "Feature", "id": 16, "properties": { "Name": "HealthPoint - SeaTac", "Address": "4040 S 188th St, SeaTac, WA 98188" }, "geometry": { "type": "Point", "coordinates": [ -122.282486303331041, 47.434666 ] } },
{ "type": "Feature", "id": 17, "properties": { "Name": "HealthPoint - Tukwila ", "Address": "13030 Military Road South, Tukwila, WA 98168" }, "geometry": { "type": "Point", "coordinates": [ -122.295079512216745, 47.48592935 ] } },
{ "type": "Feature", "id": 18, "properties": { "Name": "HealthPoint - Tyee Campus ", "Address": "4424 South 188th St, SeaTac, WA 98188" }, "geometry": { "type": "Point", "coordinates": [ -122.277561588594153, 47.4363917 ] } },
{ "type": "Feature", "id": 19, "properties": { "Name": "HealthPoint - Valley Cities Auburn ", "Address": "2704 I Street NE, Auburn, WA 98002" }, "geometry": { "type": "Point", "coordinates": [ -122.218790404613259, 47.33091455 ] } },
{ "type": "Feature", "id": 20, "properties": { "Name": "HealthPoint - Valley Cities Kent ", "Address": "325 W Gowe St, Kent, WA 98032" }, "geometry": { "type": "Point", "coordinates": [ -122.2357588, 47.3810527 ] } },
{ "type": "Feature", "id": 21, "properties": { "Name": "Highline Medical Center - St. Anne Hospital", "Address": "16251 Sylvester Road Southwest, Burien, WA 98166" }, "geometry": { "type": "Point", "coordinates": [ -122.342833693608526, 47.4573046 ] } },
{ "type": "Feature", "id": 22, "properties": { "Name": "International Community Health Services (ICHS) - Bellevue", "Address": "1050 140th Ave NE, Bellevue, WA 98005" }, "geometry": { "type": "Point", "coordinates": [ -122.153508551020408, 47.61937257142857 ] } },
{ "type": "Feature", "id": 23, "properties": { "Name": "International Community Health Services (ICHS) - Holly Park", "Address": "3815 S Othello St, Seattle, WA 98118" }, "geometry": { "type": "Point", "coordinates": [ -122.2844963, 47.536866 ] } },
{ "type": "Feature", "id": 24, "properties": { "Name": "International Community Health Services (ICHS) - International District", "Address": "720 8th Ave S, Seattle, WA 98104" }, "geometry": { "type": "Point", "coordinates": [ -122.3220525, 47.5961337 ] } },
{ "type": "Feature", "id": 25, "properties": { "Name": "Lake Washington Institute of Technology - Dental Clinic", "Address": "11605 132nd Avenue NE, Kirkland, WA 98034" }, "geometry": { "type": "Point", "coordinates": [ -122.167328447359978, 47.7047684 ] } },
{ "type": "Feature", "id": 26, "properties": { "Name": "Neighborcare Health - 45th St", "Address": "1629 North 45th Street, Seattle, WA 98103" }, "geometry": { "type": "Point", "coordinates": [ -122.337728025696492, 47.66113165 ] } },
{ "type": "Feature", "id": 27, "properties": { "Name": "Neighborcare Health - Ballard ", "Address": "1753 NW 56th Street, Seattle, WA 98107" }, "geometry": { "type": "Point", "coordinates": [ -122.381253188864036, 47.66923845 ] } },
{ "type": "Feature", "id": 28, "properties": { "Name": "Neighborcare Health - Columbia City ", "Address": "4400 37th Avenue South, Seattle, WA 98118" }, "geometry": { "type": "Point", "coordinates": [ -122.2859865, 47.5635772 ] } },
{ "type": "Feature", "id": 29, "properties": { "Name": "Neighborcare Health - High Point ", "Address": "6020 35th Avenue SW, Seattle, WA 98126" }, "geometry": { "type": "Point", "coordinates": [ -122.375908454550967, 47.547718 ] } },
{ "type": "Feature", "id": 30, "properties": { "Name": "Neighborcare Health - Lake City ", "Address": "12721 30th Avenue NE, Seattle, WA 98125" }, "geometry": { "type": "Point", "coordinates": [ -122.29682061376586, 47.72170425 ] } },
{ "type": "Feature", "id": 31, "properties": { "Name": "Neighborcare Health - Magnuson ", "Address": "7101 62nd Avenue NE, Seattle , WA 98115" }, "geometry": { "type": "Point", "coordinates": [ -122.262840241549554, 47.6806399 ] } },
{ "type": "Feature", "id": 32, "properties": { "Name": "Neighborcare Health - Meridian ", "Address": "10521 Meridian Avenue North, Seattle, WA 98133" }, "geometry": { "type": "Point", "coordinates": [ -122.334060714285727, 47.705485571428568 ] } },
{ "type": "Feature", "id": 33, "properties": { "Name": "Neighborcare Health - Pike Place Market ", "Address": "1930 Post Alley, Seattle, WA 98101" }, "geometry": { "type": "Point", "coordinates": [ -122.3426489, 47.6105584 ] } },
{ "type": "Feature", "id": 34, "properties": { "Name": "Neighborcare Health - Ranier Beach ", "Address": "9245 Rainier Avenue South, Seattle, WA 98118" }, "geometry": { "type": "Point", "coordinates": [ -122.2693467, 47.5195022 ] } },
{ "type": "Feature", "id": 35, "properties": { "Name": "Neighborcare Health - St. Vincent de Paul - Aurora ", "Address": "13555 Aurora Avenue N, Seattle, WA 98133" }, "geometry": { "type": "Point", "coordinates": [ -122.3456232, 47.7284991 ] } },
{ "type": "Feature", "id": 36, "properties": { "Name": "Neighborcare Health - Vashon ", "Address": "10030 SW 210th Street, Vashon, WA 98070" }, "geometry": { "type": "Point", "coordinates": [ -122.463352995340074, 47.4184607 ] } },
{ "type": "Feature", "id": 37, "properties": { "Name": "Neighborcare Health - Youth Clinic at 45th St ", "Address": "1629 North 45th Street, Seattle, WA 98103" }, "geometry": { "type": "Point", "coordinates": [ -122.337728025696492, 47.66113165 ] } },
{ "type": "Feature", "id": 38, "properties": { "Name": "Neighborcare Health - Youth Clinic at New Horizons ", "Address": "2709 3rd Ave, Seattle, WA 98121" }, "geometry": { "type": "Point", "coordinates": [ -122.349536087159095, 47.6171479 ] } },
{ "type": "Feature", "id": 39, "properties": { "Name": "Sea Mar Community Health Center - Bellevue ", "Address": "3801 150th Ave SE, Bellevue WA 98006" }, "geometry": { "type": "Point", "coordinates": [ -122.1404937, 47.5755705 ] } },
{ "type": "Feature", "id": 40, "properties": { "Name": "Sea Mar Community Health Center - Burien ", "Address": "14434 Ambaum Blvd SW, Burien, WA 98166" }, "geometry": { "type": "Point", "coordinates": [ -122.346654755731166, 47.4729026 ] } },
{ "type": "Feature", "id": 41, "properties": { "Name": "Sea Mar Community Health Center - Des Moines ", "Address": "2781 S 242nd St, Des Moines, WA 98198" }, "geometry": { "type": "Point", "coordinates": [ -122.297473514046871, 47.38407025 ] } },
{ "type": "Feature", "id": 42, "properties": { "Name": "Sea Mar Community Health Center - Federal Way ", "Address": "31405 18th Ave S, Federal Way, WA 98003" }, "geometry": { "type": "Point", "coordinates": [ -122.311142563759589, 47.3202933 ] } },
{ "type": "Feature", "id": 43, "properties": { "Name": "Sea Mar Community Health Center - Kent ", "Address": "233 2nd Avenue S., Kent, WA 98032" }, "geometry": { "type": "Point", "coordinates": [ -122.235234396794397, 47.37996355 ] } },
{ "type": "Feature", "id": 44, "properties": { "Name": "Sea Mar Community Health Center - Seattle ", "Address": "8720 14th Avenue S, Seattle, WA 98108" }, "geometry": { "type": "Point", "coordinates": [ -122.314602975599172, 47.52499365 ] } },
{ "type": "Feature", "id": 45, "properties": { "Name": "Sea Mar Community Health Center - Seattle Adolescent Clinic ", "Address": "9635 Des Moines Memorial Drive S., Seattle, WA 98108" }, "geometry": { "type": "Point", "coordinates": [ -122.315606008496559, 47.51651455 ] } },
{ "type": "Feature", "id": 46, "properties": { "Name": "Sea Mar Community Health Center - White Center ", "Address": "9650 15th Ave SW, Seattle, WA 98106" }, "geometry": { "type": "Point", "coordinates": [ -122.3539383, 47.5300865 ] } },
{ "type": "Feature", "id": 47, "properties": { "Name": "Seattle Children's Odessa Brown Clinic ", "Address": "2101 E Yesler Way, Seattle, WA 98122" }, "geometry": { "type": "Point", "coordinates": [ -122.3044505, 47.6014846 ] } },
{ "type": "Feature", "id": 48, "properties": { "Name": "Seattle Indian Health Board ", "Address": "611 12th Avenue South, Seattle WA 98144" }, "geometry": { "type": "Point", "coordinates": [ -122.3181035, 47.597232 ] } },
{ "type": "Feature", "id": 49, "properties": { "Name": "Shoreline Community College - Dental Clinic ", "Address": "16101 Greenwood Avenue North, Shoreline, WA 98133" }, "geometry": { "type": "Point", "coordinates": [ -122.355808, 47.747783 ] } },
{ "type": "Feature", "id": 50, "properties": { "Name": "University of Washington School of Dentistry ", "Address": "1959 NE Pacific Street, Seattle WA 98195" }, "geometry": { "type": "Point", "coordinates": [ -122.307582922589063, 47.64941185 ] } }
]
}
