{
"type": "FeatureCollection",
"name": "kc_schools",
"crs": { "type": "name", "properties": { "name": "urn:ogc:def:crs:OGC:1.3:CRS84" } },
"features": [
{ "type": "Feature", "id": 1, "properties": { "CODE": "School - High", "NAME": "Sammamish High School", "ADDRESS": "100 140th Ave SE", "ZIPCODE": "98005", "DISTRICT": "BELLEVUE" }, "geometry": { "type": "Point", "coordinates": [ -122.152302857805367, 47.608460571194968 ] } },
{ "type": "Feature", "id": 2, "properties": { "CODE": "School - Elementary", "NAME": "Saint Brendan Catholic School", "ADDRESS": "10049 NE 195th St", "ZIPCODE": "98011", "DISTRICT": "NORTHSHORE" }, "geometry": { "type": "Point", "coordinates": [ -122.205414761768452, 47.768906453577692 ] } },
{ "type": "Feature", "id": 3, "properties": { "CODE": "School - Elementary", "NAME": "Highland Park Elementary School", "ADDRESS": "1012 SW Trenton St", "ZIPCODE": "98106", "DISTRICT": "SEATTLE" }, "geometry": { "type": "Point", "coordinates": [ -122.348454353604524, 47.525265125530915 ] } },
{ "type": "Feature", "id": 4, "properties": { "CODE": "School - Elementary", "NAME": "Lakeview Elementary School", "ADDRESS": "10400 NE 68th St", "ZIPCODE": "98033", "DISTRICT": "LAKE WASHINGTON" }, "geometry": { "type": "Point", "coordinates": [ -122.200169847335346, 47.667244502040582 ] } },
{ "type": "Feature", "id": 5, "properties": { "CODE": "School - High", "NAME": "Nathan Hale High School", "ADDRESS": "10750 30th Ave NE", "ZIPCODE": "98125", "DISTRICT": "SEATTLE" }, "geometry": { "type": "Point", "coordinates": [ -122.294726678390447, 47.708042109459718 ] } },
{ "type": "Feature", "id": 6, "properties": { "CODE": "School - Alternative", "NAME": "International Community School", "ADDRESS": "11133 NE 65th St  ", "ZIPCODE": "98033", "DISTRICT": "LAKE WASHINGTON" }, "geometry": { "type": "Point", "coordinates": [ -122.191117367185996, 47.663801985006977 ] } },
{ "type": "Feature", "id": 7, "properties": { "CODE": "School - Elementary", "NAME": "Southern Heights Elementary School", "ADDRESS": "11249 14th Ave S", "ZIPCODE": "98168", "DISTRICT": "HIGHLINE" }, "geometry": { "type": "Point", "coordinates": [ -122.315783450318563, 47.501999795624847 ] } },
{ "type": "Feature", "id": 8, "properties": { "CODE": "School - Junior High or Middle", "NAME": "McKnight Middle School", "ADDRESS": "1200 Edmonds Ave NE", "ZIPCODE": "98056", "DISTRICT": "RENTON" }, "geometry": { "type": "Point", "coordinates": [ -122.18372714468299, 47.505722633023012 ] } },
{ "type": "Feature", "id": 9, "properties": { "CODE": "School - Junior High or Middle", "NAME": "Dimmit Middle School", "ADDRESS": "12320 80th Ave S", "ZIPCODE": "98178", "DISTRICT": "RENTON" }, "geometry": { "type": "Point", "coordinates": [ -122.232295934040948, 47.492521753003551 ] } },
{ "type": "Feature", "id": 10, "properties": { "CODE": "School - Elementary", "NAME": "Cascade View Elementary School-Snoqualmie", "ADDRESS": "34816 SE Ridge St", "ZIPCODE": "98065", "DISTRICT": "SNOQUALMIE VALLEY" }, "geometry": { "type": "Point", "coordinates": [ -121.875816552131511, 47.532493380169775 ] } },
{ "type": "Feature", "id": 11, "properties": { "CODE": "School - Junior High or Middle", "NAME": "Robert Eagle Staff Middle School", "ADDRESS": "1330 N 90th St", "ZIPCODE": "98103", "DISTRICT": "SEATTLE" }, "geometry": { "type": "Point", "coordinates": [ -122.340484252165169, 47.695104584005563 ] } },
{ "type": "Feature", "id": 12, "properties": { "CODE": "School - College or University", "NAME": "Green River College", "ADDRESS": "12401 SE 320th St", "ZIPCODE": "98092", "DISTRICT": "AUBURN" }, "geometry": { "type": "Point", "coordinates": [ -122.175720940656603, 47.313574653216023 ] } },
{ "type": "Feature", "id": 13, "properties": { "CODE": "School - Elementary", "NAME": "Stevens Elementary School", "ADDRESS": "1242 18th Ave E", "ZIPCODE": "98112", "DISTRICT": "SEATTLE" }, "geometry": { "type": "Point", "coordinates": [ -122.308027149625516, 47.631931480906239 ] } },
{ "type": "Feature", "id": 14, "properties": { "CODE": "School - High", "NAME": "Kentridge High School", "ADDRESS": "12430 SE 208th St", "ZIPCODE": "98031", "DISTRICT": "KENT" }, "geometry": { "type": "Point", "coordinates": [ -122.173963495028204, 47.416671558895295 ] } },
{ "type": "Feature", "id": 15, "properties": { "CODE": "School - Elementary", "NAME": "Benjamin Franklin Elementary School", "ADDRESS": "12434 NE 60th St", "ZIPCODE": "98033", "DISTRICT": "LAKE WASHINGTON" }, "geometry": { "type": "Point", "coordinates": [ -122.173308889119994, 47.662137409915061 ] } },
{ "type": "Feature", "id": 16, "properties": { "CODE": "School - Junior High or Middle", "NAME": "Meeker Middle School", "ADDRESS": "12600 SE 192nd St", "ZIPCODE": "98058", "DISTRICT": "KENT" }, "geometry": { "type": "Point", "coordinates": [ -122.172497840216778, 47.431037252662904 ] } },
{ "type": "Feature", "id": 17, "properties": { "CODE": "School - Elementary", "NAME": "Woodridge Elementary School", "ADDRESS": "12619 SE 20th Pl", "ZIPCODE": "98005", "DISTRICT": "BELLEVUE" }, "geometry": { "type": "Point", "coordinates": [ -122.172876368747481, 47.591957987315105 ] } },
{ "type": "Feature", "id": 18, "properties": { "CODE": "School - Alternative", "NAME": "Jing Mei Elementary School", "ADDRESS": "12635 SE 56th St", "ZIPCODE": "98006", "DISTRICT": "BELLEVUE" }, "geometry": { "type": "Point", "coordinates": [ -122.170913656980034, 47.552171359131606 ] } },
{ "type": "Feature", "id": 19, "properties": { "CODE": "School - Elementary", "NAME": "Soos Creek Elementary School", "ADDRESS": "12651 SE 218th Pl", "ZIPCODE": "98031", "DISTRICT": "KENT" }, "geometry": { "type": "Point", "coordinates": [ -122.171899905922615, 47.406136885447445 ] } },
{ "type": "Feature", "id": 20, "properties": { "CODE": "School - Elementary", "NAME": "Martin Sortun Elementary School", "ADDRESS": "12711 SE 248th St", "ZIPCODE": "98030", "DISTRICT": "KENT" }, "geometry": { "type": "Point", "coordinates": [ -122.1709941081659, 47.378333772564353 ] } },
{ "type": "Feature", "id": 21, "properties": { "CODE": "School - Elementary", "NAME": "Carl Sandburg Elementary School", "ADDRESS": "12801 84th Ave NE", "ZIPCODE": "98034", "DISTRICT": "LAKE WASHINGTON" }, "geometry": { "type": "Point", "coordinates": [ -122.23044438529395, 47.715924932106823 ] } },
{ "type": "Feature", "id": 22, "properties": { "CODE": "School - Alternative", "NAME": "Discovery Community School", "ADDRESS": "12801 84th Ave NE", "ZIPCODE": "98034", "DISTRICT": "LAKE WASHINGTON" }, "geometry": { "type": "Point", "coordinates": [ -122.23044438529395, 47.715924932106823 ] } },
{ "type": "Feature", "id": 23, "properties": { "CODE": "School - Elementary", "NAME": "Olympic Hills Elementary School", "ADDRESS": "13018 20th Ave NE", "ZIPCODE": "98125", "DISTRICT": "SEATTLE" }, "geometry": { "type": "Point", "coordinates": [ -122.306856390165166, 47.724055437687959 ] } },
{ "type": "Feature", "id": 24, "properties": { "CODE": "School - Elementary", "NAME": "Broadview-Thomson K-8 School", "ADDRESS": "13052 Greenwood Ave N", "ZIPCODE": "98133", "DISTRICT": "SEATTLE" }, "geometry": { "type": "Point", "coordinates": [ -122.354334721182838, 47.724682420195165 ] } },
{ "type": "Feature", "id": 25, "properties": { "CODE": "School - Elementary", "NAME": "Silver Lake Elementary School", "ADDRESS": "1310 SW 325th Pl", "ZIPCODE": "98023", "DISTRICT": "FEDERAL WAY" }, "geometry": { "type": "Point", "coordinates": [ -122.352217548896704, 47.310174823888808 ] } },
{ "type": "Feature", "id": 26, "properties": { "CODE": "School - Elementary", "NAME": "Valley Christian School", "ADDRESS": "1312 2nd St SE", "ZIPCODE": "98002", "DISTRICT": "AUBURN" }, "geometry": { "type": "Point", "coordinates": [ -122.211068770257469, 47.30645126801484 ] } },
{ "type": "Feature", "id": 27, "properties": { "CODE": "School - Elementary", "NAME": "Peter Kirk Elementary School", "ADDRESS": "1312 6th St", "ZIPCODE": "98033", "DISTRICT": "LAKE WASHINGTON" }, "geometry": { "type": "Point", "coordinates": [ -122.195949892366187, 47.686038779439876 ] } },
{ "type": "Feature", "id": 28, "properties": { "CODE": "School - Elementary", "NAME": "Whittier Elementary School", "ADDRESS": "1320 NW 75th St", "ZIPCODE": "98117", "DISTRICT": "SEATTLE" }, "geometry": { "type": "Point", "coordinates": [ -122.373077407812062, 47.683591111852579 ] } },
{ "type": "Feature", "id": 29, "properties": { "CODE": "School - Alternative", "NAME": "Licton Springs K-8 School", "ADDRESS": "1330 N 90th St", "ZIPCODE": "98103", "DISTRICT": "SEATTLE" }, "geometry": { "type": "Point", "coordinates": [ -122.340484252165169, 47.695104584005563 ] } },
{ "type": "Feature", "id": 30, "properties": { "CODE": "School - Elementary", "NAME": "Opstad Elementary School", "ADDRESS": "1345 Stilson Ave SE", "ZIPCODE": "98045", "DISTRICT": "SNOQUALMIE VALLEY" }, "geometry": { "type": "Point", "coordinates": [ -121.766951436202419, 47.480212798815529 ] } },
{ "type": "Feature", "id": 31, "properties": { "CODE": "School - Elementary", "NAME": "Leschi Elementary School", "ADDRESS": "135 32nd Ave", "ZIPCODE": "98122", "DISTRICT": "SEATTLE" }, "geometry": { "type": "Point", "coordinates": [ -122.291812617600584, 47.602101970204949 ] } },
{ "type": "Feature", "id": 32, "properties": { "CODE": "School - Junior High or Middle", "NAME": "Rose Hill Middle School", "ADDRESS": "13505 NE 75th St", "ZIPCODE": "98052", "DISTRICT": "LAKE WASHINGTON" }, "geometry": { "type": "Point", "coordinates": [ -122.15971093514267, 47.669403550564347 ] } },
{ "type": "Feature", "id": 33, "properties": { "CODE": "School - Alternative", "NAME": "Stella Schola Middle Schol", "ADDRESS": "13505 NE 75th St", "ZIPCODE": "98052", "DISTRICT": "LAKE WASHINGTON" }, "geometry": { "type": "Point", "coordinates": [ -122.15971093514267, 47.669403550564347 ] } },
{ "type": "Feature", "id": 34, "properties": { "CODE": "School - Junior High or Middle", "NAME": "Lakeside Middle School", "ADDRESS": "13510 1st Ave NE", "ZIPCODE": "98125", "DISTRICT": "SEATTLE" }, "geometry": { "type": "Point", "coordinates": [ -122.327678046435466, 47.72798522576349 ] } },
{ "type": "Feature", "id": 35, "properties": { "CODE": "School - Junior High or Middle", "NAME": "Tyee Middle School", "ADDRESS": "13630 SE Allen Rd", "ZIPCODE": "98006", "DISTRICT": "BELLEVUE" }, "geometry": { "type": "Point", "coordinates": [ -122.158334830057456, 47.573543721324548 ] } },
{ "type": "Feature", "id": 36, "properties": { "CODE": "School - Elementary", "NAME": "Helen Keller Elementary School", "ADDRESS": "13820 108th Ave NE", "ZIPCODE": "98034", "DISTRICT": "LAKE WASHINGTON" }, "geometry": { "type": "Point", "coordinates": [ -122.195691498569673, 47.724812473828337 ] } },
{ "type": "Feature", "id": 37, "properties": { "CODE": "School - High", "NAME": "John F. Kennedy Catholic High School", "ADDRESS": "140 S 140th St", "ZIPCODE": "98168", "DISTRICT": "HIGHLINE" }, "geometry": { "type": "Point", "coordinates": [ -122.331977342846898, 47.478074314813931 ] } },
{ "type": "Feature", "id": 38, "properties": { "CODE": "School - High", "NAME": "Lakeside High School", "ADDRESS": "14050 1st Ave NE", "ZIPCODE": "98125", "DISTRICT": "SEATTLE" }, "geometry": { "type": "Point", "coordinates": [ -122.326753040283407, 47.732702602599517 ] } },
{ "type": "Feature", "id": 39, "properties": { "CODE": "School - Elementary", "NAME": "Somerset Elementary School", "ADDRESS": "14100 Somerset Blvd SE", "ZIPCODE": "98006", "DISTRICT": "BELLEVUE" }, "geometry": { "type": "Point", "coordinates": [ -122.151785597512841, 47.562920977396843 ] } },
{ "type": "Feature", "id": 40, "properties": { "CODE": "School - Junior High or Middle", "NAME": "Kamiakin Middle School", "ADDRESS": "14111 132nd Ave NE", "ZIPCODE": "98034", "DISTRICT": "LAKE WASHINGTON" }, "geometry": { "type": "Point", "coordinates": [ -122.164941001228186, 47.727303382219162 ] } },
{ "type": "Feature", "id": 41, "properties": { "CODE": "School - College or University", "NAME": "Green River College - Enumclaw Campus", "ADDRESS": "1414 Griffin Ave", "ZIPCODE": "98022", "DISTRICT": "ENUMCLAW" }, "geometry": { "type": "Point", "coordinates": [ -121.992150772556172, 47.204364476256288 ] } },
{ "type": "Feature", "id": 42, "properties": { "CODE": "School - Elementary", "NAME": "Fairwood Elementary School", "ADDRESS": "16600 148th Ave SE", "ZIPCODE": "98058", "DISTRICT": "KENT" }, "geometry": { "type": "Point", "coordinates": [ -122.141551775118586, 47.453369196295 ] } },
{ "type": "Feature", "id": 43, "properties": { "CODE": "School - Elementary", "NAME": "Ardmore Elementary School", "ADDRESS": "16616 NE 32nd St", "ZIPCODE": "98008", "DISTRICT": "BELLEVUE" }, "geometry": { "type": "Point", "coordinates": [ -122.117928642732153, 47.63949149247042 ] } },
{ "type": "Feature", "id": 44, "properties": { "CODE": "School - Elementary", "NAME": "Maple Valley Christian Elementary School", "ADDRESS": "16700 174th Ave SE", "ZIPCODE": "98058", "DISTRICT": "KENT" }, "geometry": { "type": "Point", "coordinates": [ -122.111364197537895, 47.452597341988081 ] } },
{ "type": "Feature", "id": 45, "properties": { "CODE": "School - Elementary", "NAME": "Redmond Elementary School", "ADDRESS": "16800 NE 80th St", "ZIPCODE": "98052", "DISTRICT": "LAKE WASHINGTON" }, "geometry": { "type": "Point", "coordinates": [ -122.116486939176539, 47.675439916946559 ] } },
{ "type": "Feature", "id": 46, "properties": { "CODE": "School - Elementary", "NAME": "Renton Park Elementary School", "ADDRESS": "16828 128th Ave SE", "ZIPCODE": "98058", "DISTRICT": "RENTON" }, "geometry": { "type": "Point", "coordinates": [ -122.168547653427368, 47.451486315124804 ] } },
{ "type": "Feature", "id": 47, "properties": { "CODE": "School - Alternative", "NAME": "Seattle World School", "ADDRESS": "1700 E Union St", "ZIPCODE": "98122", "DISTRICT": "SEATTLE" }, "geometry": { "type": "Point", "coordinates": [ -122.309285395896055, 47.613373816469036 ] } },
{ "type": "Feature", "id": 48, "properties": { "CODE": "School - Elementary", "NAME": "Kennydale Elementary School", "ADDRESS": "1700 NE 28th St", "ZIPCODE": "98056", "DISTRICT": "RENTON" }, "geometry": { "type": "Point", "coordinates": [ -122.197492290513424, 47.517430636401201 ] } },
{ "type": "Feature", "id": 49, "properties": { "CODE": "School - Elementary", "NAME": "Horace Mann Elementary School", "ADDRESS": "17001 NE 104th St", "ZIPCODE": "98052", "DISTRICT": "LAKE WASHINGTON" }, "geometry": { "type": "Point", "coordinates": [ -122.113197863462389, 47.691730671086773 ] } },
{ "type": "Feature", "id": 50, "properties": { "CODE": "School - Junior High or Middle", "NAME": "Northwood Middle School", "ADDRESS": "17007 SE 184th St", "ZIPCODE": "98058", "DISTRICT": "KENT" }, "geometry": { "type": "Point", "coordinates": [ -122.114074052982374, 47.436513144940058 ] } },
{ "type": "Feature", "id": 51, "properties": { "CODE": "School - Alternative", "NAME": "Hamlin Robinson School", "ADDRESS": "1701 20th Ave S", "ZIPCODE": "98144", "DISTRICT": "SEATTLE" }, "geometry": { "type": "Point", "coordinates": [ -122.306611314537804, 47.588247944411791 ] } },
{ "type": "Feature", "id": 52, "properties": { "CODE": "School - Elementary", "NAME": "Briarwood Elementary School", "ADDRESS": "17020 SE 134th St", "ZIPCODE": "98059", "DISTRICT": "ISSAQUAH" }, "geometry": { "type": "Point", "coordinates": [ -122.115426486397283, 47.483523672843532 ] } },
{ "type": "Feature", "id": 53, "properties": { "CODE": "School - Elementary", "NAME": "Covington Elementary School", "ADDRESS": "17070 SE Wax Rd", "ZIPCODE": "98042", "DISTRICT": "KENT" }, "geometry": { "type": "Point", "coordinates": [ -122.113933829423004, 47.353855789587094 ] } },
{ "type": "Feature", "id": 54, "properties": { "CODE": "School - K thru 12", "NAME": "Bellevue Christian School", "ADDRESS": "17110 140th Ave NE", "ZIPCODE": "98072", "DISTRICT": "NORTHSHORE" }, "geometry": { "type": "Point", "coordinates": [ -122.151747133790664, 47.752317271024538 ] } },
{ "type": "Feature", "id": 55, "properties": { "CODE": "School - Elementary", "NAME": "Hollywood Hill Elementary School", "ADDRESS": "17110 148th Ave NE", "ZIPCODE": "98072", "DISTRICT": "NORTHSHORE" }, "geometry": { "type": "Point", "coordinates": [ -122.139798000948616, 47.751996820953117 ] } },
{ "type": "Feature", "id": 56, "properties": { "CODE": "School - Elementary", "NAME": "Margaret Mead Elementary School", "ADDRESS": "1725 216th Ave NE", "ZIPCODE": "98074", "DISTRICT": "LAKE WASHINGTON" }, "geometry": { "type": "Point", "coordinates": [ -122.053070232958831, 47.625596306535641 ] } },
{ "type": "Feature", "id": 57, "properties": { "CODE": "School - High", "NAME": "Redmond High School", "ADDRESS": "17272 NE 104th St", "ZIPCODE": "98052", "DISTRICT": "LAKE WASHINGTON" }, "geometry": { "type": "Point", "coordinates": [ -122.106417082215273, 47.694921366115643 ] } },
{ "type": "Feature", "id": 58, "properties": { "CODE": "School - High", "NAME": "Shorewood High School", "ADDRESS": "17300 Fremont Ave N", "ZIPCODE": "98133", "DISTRICT": "SHORELINE" }, "geometry": { "type": "Point", "coordinates": [ -122.350196996328734, 47.754699449575881 ] } },
{ "type": "Feature", "id": 59, "properties": { "CODE": "School - Elementary", "NAME": "St. Luke School", "ADDRESS": "17533 Saint Luke Pl N", "ZIPCODE": "98133", "DISTRICT": "SHORELINE" }, "geometry": { "type": "Point", "coordinates": [ -122.353651597535602, 47.756726430833126 ] } },
{ "type": "Feature", "id": 60, "properties": { "CODE": "School - Alternative", "NAME": "Puget Sound Skills Center", "ADDRESS": "18010 8th Ave S", "ZIPCODE": "98148", "DISTRICT": "HIGHLINE" }, "geometry": { "type": "Point", "coordinates": [ -122.32292875082392, 47.441072195956544 ] } },
{ "type": "Feature", "id": 61, "properties": { "CODE": "School - Elementary", "NAME": "Albert Einstein Elementary School", "ADDRESS": "18025 NE 116th St  ", "ZIPCODE": "98052", "DISTRICT": "LAKE WASHINGTON" }, "geometry": { "type": "Point", "coordinates": [ -122.098172008504918, 47.702226973678357 ] } },
{ "type": "Feature", "id": 62, "properties": { "CODE": "School - Elementary", "NAME": "Ridgewood Elementary School", "ADDRESS": "18030 162nd Pl SE", "ZIPCODE": "98058", "DISTRICT": "KENT" }, "geometry": { "type": "Point", "coordinates": [ -122.122184216143111, 47.44042714416571 ] } },
{ "type": "Feature", "id": 63, "properties": { "CODE": "School - Elementary", "NAME": "St. Mark Parish School", "ADDRESS": "18033 15th Pl NE", "ZIPCODE": "98155", "DISTRICT": "SHORELINE" }, "geometry": { "type": "Point", "coordinates": [ -122.313852086818727, 47.760896583572176 ] } },
{ "type": "Feature", "id": 64, "properties": { "CODE": "School - Alternative", "NAME": "Salmon Bay K-8 School ", "ADDRESS": "1810 NW 65th St", "ZIPCODE": "98117", "DISTRICT": "SEATTLE" }, "geometry": { "type": "Point", "coordinates": [ -122.380511783191139, 47.676890325249012 ] } },
{ "type": "Feature", "id": 65, "properties": { "CODE": "School - Elementary", "NAME": "Parkwood Elementary School", "ADDRESS": "1815 N 155th St", "ZIPCODE": "98133", "DISTRICT": "SHORELINE" }, "geometry": { "type": "Point", "coordinates": [ -122.336525982562648, 47.740778279111424 ] } },
{ "type": "Feature", "id": 66, "properties": { "CODE": "School - High", "NAME": "Edward S. Ingraham High School", "ADDRESS": "1819 N 135th St", "ZIPCODE": "98133", "DISTRICT": "SEATTLE" }, "geometry": { "type": "Point", "coordinates": [ -122.337905147431641, 47.726232980852913 ] } },
{ "type": "Feature", "id": 67, "properties": { "CODE": "School - High", "NAME": "Tahoma High School", "ADDRESS": "23499 SE Tahoma Way", "ZIPCODE": "98038", "DISTRICT": "TAHOMA" }, "geometry": { "type": "Point", "coordinates": [ -122.028829982541325, 47.357668298218819 ] } },
{ "type": "Feature", "id": 68, "properties": { "CODE": "School - College or University", "NAME": "Cascadia College", "ADDRESS": "18225 Campus Way NE", "ZIPCODE": "98011", "DISTRICT": "NORTHSHORE" }, "geometry": { "type": "Point", "coordinates": [ -122.191445174216256, 47.759773012649205 ] } },
{ "type": "Feature", "id": 69, "properties": { "CODE": "School - Elementary", "NAME": "Carriage Crest Elementary School", "ADDRESS": "18235 140th Ave SE", "ZIPCODE": "98058", "DISTRICT": "KENT" }, "geometry": { "type": "Point", "coordinates": [ -122.157110030582743, 47.438023305095498 ] } },
{ "type": "Feature", "id": 70, "properties": { "CODE": "School - Elementary", "NAME": "Bow Lake Elementary School", "ADDRESS": "18237 42nd Ave S", "ZIPCODE": "98188", "DISTRICT": "HIGHLINE" }, "geometry": { "type": "Point", "coordinates": [ -122.282483409224696, 47.439158558336388 ] } },
{ "type": "Feature", "id": 71, "properties": { "CODE": "School - Junior High or Middle", "NAME": "Olympic Middle School", "ADDRESS": "1825 K St SE", "ZIPCODE": "98002", "DISTRICT": "AUBURN" }, "geometry": { "type": "Point", "coordinates": [ -122.217806842841881, 47.292201547897555 ] } },
{ "type": "Feature", "id": 72, "properties": { "CODE": "School - K thru 12", "NAME": "Seattle Christian School", "ADDRESS": "18301 Military Rd S", "ZIPCODE": "98188", "DISTRICT": "HIGHLINE" }, "geometry": { "type": "Point", "coordinates": [ -122.273694031013051, 47.438456158064845 ] } },
{ "type": "Feature", "id": 73, "properties": { "CODE": "School - Elementary", "NAME": "Seattle Christian Elementary School", "ADDRESS": "18301 Military Rd S", "ZIPCODE": "98188", "DISTRICT": "HIGHLINE" }, "geometry": { "type": "Point", "coordinates": [ -122.273694031013051, 47.438456158064845 ] } },
{ "type": "Feature", "id": 74, "properties": { "CODE": "School - Alternative", "NAME": "Choice Academy", "ADDRESS": "18367 8th Ave S", "ZIPCODE": "98148", "DISTRICT": "HIGHLINE" }, "geometry": { "type": "Point", "coordinates": [ -122.325081521264579, 47.437627366719795 ] } },
{ "type": "Feature", "id": 75, "properties": { "CODE": "School - Elementary", "NAME": "Benson Hill Elementary School", "ADDRESS": "18665 116th Ave SE", "ZIPCODE": "98058", "DISTRICT": "RENTON" }, "geometry": { "type": "Point", "coordinates": [ -122.187275937917889, 47.434818348836153 ] } },
{ "type": "Feature", "id": 76, "properties": { "CODE": "School - Other facility", "NAME": "Shoreline Childrens Center", "ADDRESS": "1900 N 170th St", "ZIPCODE": "98133", "DISTRICT": "SHORELINE" }, "geometry": { "type": "Point", "coordinates": [ -122.336104534297192, 47.752897972965101 ] } },
{ "type": "Feature", "id": 77, "properties": { "CODE": "School - Alternative", "NAME": "Pathfinder K-8 School", "ADDRESS": "1901 SW Genesee St", "ZIPCODE": "98106", "DISTRICT": "SEATTLE" }, "geometry": { "type": "Point", "coordinates": [ -122.357920533903908, 47.562679609531799 ] } },
{ "type": "Feature", "id": 78, "properties": { "CODE": "School - Junior High or Middle", "NAME": "Timbercrest Jr High", "ADDRESS": "19115 215th Way NE", "ZIPCODE": "98077", "DISTRICT": "NORTHSHORE" }, "geometry": { "type": "Point", "coordinates": [ -122.051048257995078, 47.76636401133905 ] } },
{ "type": "Feature", "id": 79, "properties": { "CODE": "School - Elementary", "NAME": "Kenmore Elementary School", "ADDRESS": "19121 71st Ave NE", "ZIPCODE": "98028", "DISTRICT": "NORTHSHORE" }, "geometry": { "type": "Point", "coordinates": [ -122.245791885013915, 47.767818925799695 ] } },
{ "type": "Feature", "id": 80, "properties": { "CODE": "School - Junior High or Middle", "NAME": "Worth McClure Middle School", "ADDRESS": "1915 1st Ave W", "ZIPCODE": "98119", "DISTRICT": "SEATTLE" }, "geometry": { "type": "Point", "coordinates": [ -122.358921704064301, 47.636827089481898 ] } },
{ "type": "Feature", "id": 81, "properties": { "CODE": "School - Junior High or Middle", "NAME": "Leota Jr High School", "ADDRESS": "19301 168th Ave NE", "ZIPCODE": "98072", "DISTRICT": "NORTHSHORE" }, "geometry": { "type": "Point", "coordinates": [ -122.116325414994151, 47.767565444627408 ] } },
{ "type": "Feature", "id": 82, "properties": { "CODE": "School - Junior High or Middle", "NAME": "Einstein Middle School", "ADDRESS": "19343 3rd Ave NW", "ZIPCODE": "98177", "DISTRICT": "SHORELINE" }, "geometry": { "type": "Point", "coordinates": [ -122.362990890982587, 47.769659080811415 ] } },
{ "type": "Feature", "id": 83, "properties": { "CODE": "School - K thru 12", "NAME": "Kings Schools", "ADDRESS": "19351 Kings Garden Dr N", "ZIPCODE": "98133", "DISTRICT": "SHORELINE" }, "geometry": { "type": "Point", "coordinates": [ -122.354174358730774, 47.769428663858854 ] } },
{ "type": "Feature", "id": 84, "properties": { "CODE": "School - Elementary", "NAME": "Glenridge Elementary School", "ADDRESS": "19405 120th Ave SE", "ZIPCODE": "98031", "DISTRICT": "KENT" }, "geometry": { "type": "Point", "coordinates": [ -122.182796142928083, 47.428318582006199 ] } },
{ "type": "Feature", "id": 85, "properties": { "CODE": "School - Elementary", "NAME": "Maywood Hills Elementary School", "ADDRESS": "19510 104th Ave NE", "ZIPCODE": "98011", "DISTRICT": "NORTHSHORE" }, "geometry": { "type": "Point", "coordinates": [ -122.197711099343792, 47.769656856618695 ] } },
{ "type": "Feature", "id": 86, "properties": { "CODE": "School - Elementary", "NAME": "Heritage Christian Academy", "ADDRESS": "19527 104th Ave NE", "ZIPCODE": "98011", "DISTRICT": "NORTHSHORE" }, "geometry": { "type": "Point", "coordinates": [ -122.202307329068674, 47.769670370277126 ] } },
{ "type": "Feature", "id": 87, "properties": { "CODE": "School - Elementary", "NAME": "Syre Elementary School", "ADDRESS": "19545 12th Ave NW", "ZIPCODE": "98177", "DISTRICT": "SHORELINE" }, "geometry": { "type": "Point", "coordinates": [ -122.372710428785183, 47.771807022968957 ] } },
{ "type": "Feature", "id": 88, "properties": { "CODE": "School - Junior High or Middle", "NAME": "Cedar Heights Middle School", "ADDRESS": "19640 SE 272nd St  ", "ZIPCODE": "98042", "DISTRICT": "KENT" }, "geometry": { "type": "Point", "coordinates": [ -122.079241050088996, 47.359178133649834 ] } },
{ "type": "Feature", "id": 89, "properties": { "CODE": "School - Elementary", "NAME": "Lake Youngs Elementary School", "ADDRESS": "19660 142nd Ave SE", "ZIPCODE": "98042", "DISTRICT": "KENT" }, "geometry": { "type": "Point", "coordinates": [ -122.152213003076824, 47.42574459423647 ] } },
{ "type": "Feature", "id": 90, "properties": { "CODE": "School - Alternative", "NAME": "Soreson Early Childhood Center", "ADDRESS": "19705 88th Ave NE ", "ZIPCODE": "98011", "DISTRICT": "NORTHSHORE" }, "geometry": { "type": "Point", "coordinates": [ -122.224421957272668, 47.770787656401779 ] } },
{ "type": "Feature", "id": 91, "properties": { "CODE": "School - High", "NAME": "Woodinville High School", "ADDRESS": "19819 136th Ave NE", "ZIPCODE": "98072", "DISTRICT": "NORTHSHORE" }, "geometry": { "type": "Point", "coordinates": [ -122.162180811849964, 47.771090531074591 ] } },
{ "type": "Feature", "id": 92, "properties": { "CODE": "School - Elementary", "NAME": "North Hill Elementary School", "ADDRESS": "19835 8th Ave S", "ZIPCODE": "98148", "DISTRICT": "HIGHLINE" }, "geometry": { "type": "Point", "coordinates": [ -122.327078608974205, 47.424795922919522 ] } },
{ "type": "Feature", "id": 93, "properties": { "CODE": "School - Elementary", "NAME": "Washington Elementary School", "ADDRESS": "20 E St NE", "ZIPCODE": "98002", "DISTRICT": "AUBURN" }, "geometry": { "type": "Point", "coordinates": [ -122.222248855276078, 47.30818454713966 ] } },
{ "type": "Feature", "id": 94, "properties": { "CODE": "School - High", "NAME": "Renton Prep Christian School", "ADDRESS": "200 Mill Ave S", "ZIPCODE": "98057", "DISTRICT": "RENTON" }, "geometry": { "type": "Point", "coordinates": [ -122.201793679637134, 47.481158071666854 ] } },
{ "type": "Feature", "id": 95, "properties": { "CODE": "School - Elementary", "NAME": "Springbrook Elementary School", "ADDRESS": "20035 100th Ave SE", "ZIPCODE": "98031", "DISTRICT": "KENT" }, "geometry": { "type": "Point", "coordinates": [ -122.208478456251584, 47.421127804954033 ] } },
{ "type": "Feature", "id": 96, "properties": { "CODE": "School - Elementary", "NAME": "John Hay Elementary School", "ADDRESS": "201 Garfield St", "ZIPCODE": "98109", "DISTRICT": "SEATTLE" }, "geometry": { "type": "Point", "coordinates": [ -122.351773326460687, 47.63293301662906 ] } },
{ "type": "Feature", "id": 97, "properties": { "CODE": "School - Junior High or Middle", "NAME": "Morningside Academy", "ADDRESS": "201 Westlake Ave N", "ZIPCODE": "98109", "DISTRICT": "SEATTLE" }, "geometry": { "type": "Point", "coordinates": [ -122.338859084335112, 47.619967557600205 ] } },
{ "type": "Feature", "id": 98, "properties": { "CODE": "School - Elementary", "NAME": "Cascade Ridge Elementary School", "ADDRESS": "2020 Trossachs Blvd SE", "ZIPCODE": "98075", "DISTRICT": "ISSAQUAH" }, "geometry": { "type": "Point", "coordinates": [ -121.973165597211491, 47.591219905387881 ] } },
{ "type": "Feature", "id": 99, "properties": { "CODE": "School - Elementary", "NAME": "Madrona Elementary School ", "ADDRESS": "20301 32nd Ave S", "ZIPCODE": "98198", "DISTRICT": "HIGHLINE" }, "geometry": { "type": "Point", "coordinates": [ -122.2930978311053, 47.420132934706693 ] } },
{ "type": "Feature", "id": 100, "properties": { "CODE": "School - Alternative", "NAME": "The Overlake School", "ADDRESS": "20301 NE 108th St", "ZIPCODE": "98053", "DISTRICT": "LAKE WASHINGTON" }, "geometry": { "type": "Point", "coordinates": [ -122.07007196354887, 47.694005450035839 ] } },
{ "type": "Feature", "id": 101, "properties": { "CODE": "School - Junior High or Middle", "NAME": "Kenmore Jr High School", "ADDRESS": "20323 66th Ave NE", "ZIPCODE": "98028", "DISTRICT": "NORTHSHORE" }, "geometry": { "type": "Point", "coordinates": [ -122.254021148817003, 47.776194856920306 ] } },
{ "type": "Feature", "id": 102, "properties": { "CODE": "School - Other facility", "NAME": "Administration Center-Vashon Island", "ADDRESS": "20414 Vashon Hwy SW", "ZIPCODE": "98070", "DISTRICT": "VASHON ISLAND" }, "geometry": { "type": "Point", "coordinates": [ -122.459813889362337, 47.421598431891788 ] } },
{ "type": "Feature", "id": 103, "properties": { "CODE": "School - Elementary", "NAME": "Byron Kibler Elementary School", "ADDRESS": "2057 Kibler Ave", "ZIPCODE": "98022", "DISTRICT": "ENUMCLAW" }, "geometry": { "type": "Point", "coordinates": [ -121.996577080760304, 47.21057017659173 ] } },
{ "type": "Feature", "id": 104, "properties": { "CODE": "School - Elementary", "NAME": "Creekside Elementary School", "ADDRESS": "20777 SE 16th St", "ZIPCODE": "98075", "DISTRICT": "ISSAQUAH" }, "geometry": { "type": "Point", "coordinates": [ -122.063760500692482, 47.594701352773491 ] } },
{ "type": "Feature", "id": 105, "properties": { "CODE": "School - Junior High or Middle", "NAME": "Washington Middle School", "ADDRESS": "2101 S Jackson St", "ZIPCODE": "98144", "DISTRICT": "SEATTLE" }, "geometry": { "type": "Point", "coordinates": [ -122.304149791180023, 47.597956289056462 ] } },
{ "type": "Feature", "id": 106, "properties": { "CODE": "School - Elementary", "NAME": "Parkside Elementary School", "ADDRESS": "2104 S 247th St", "ZIPCODE": "98198", "DISTRICT": "HIGHLINE" }, "geometry": { "type": "Point", "coordinates": [ -122.305783935476569, 47.3810299398966 ] } },
{ "type": "Feature", "id": 107, "properties": { "CODE": "School - Alternative", "NAME": "Federal Way Open Doors", "ADDRESS": "31453 28th Ave S", "ZIPCODE": "98003", "DISTRICT": "FEDERAL WAY" }, "geometry": { "type": "Point", "coordinates": [ -122.297895203475576, 47.31917032959236 ] } },
{ "type": "Feature", "id": 108, "properties": { "CODE": "School - High", "NAME": "Kentlake High School", "ADDRESS": "21401 SE Falcon Way", "ZIPCODE": "98042", "DISTRICT": "KENT" }, "geometry": { "type": "Point", "coordinates": [ -122.057262532737596, 47.331281211779974 ] } },
{ "type": "Feature", "id": 109, "properties": { "CODE": "School - Elementary", "NAME": "Des Moines Elementary School", "ADDRESS": "22001 9th Ave S", "ZIPCODE": "98198", "DISTRICT": "HIGHLINE" }, "geometry": { "type": "Point", "coordinates": [ -122.322684739964899, 47.40489471280975 ] } },
{ "type": "Feature", "id": 110, "properties": { "CODE": "School - Elementary", "NAME": "East Ridge Elementary School", "ADDRESS": "22150 NE 156th Pl", "ZIPCODE": "98077", "DISTRICT": "NORTHSHORE" }, "geometry": { "type": "Point", "coordinates": [ -122.04304923380991, 47.741435528886832 ] } },
{ "type": "Feature", "id": 111, "properties": { "CODE": "School - K thru 12", "NAME": "Kent Mountain View Academy", "ADDRESS": "22420 Military Rd S", "ZIPCODE": "98198", "DISTRICT": "KENT" }, "geometry": { "type": "Point", "coordinates": [ -122.287700949819083, 47.400133781004541 ] } },
{ "type": "Feature", "id": 112, "properties": { "CODE": "School - Elementary", "NAME": "Midway Elementary School", "ADDRESS": "22447 24th Ave S", "ZIPCODE": "98198", "DISTRICT": "HIGHLINE" }, "geometry": { "type": "Point", "coordinates": [ -122.303412366375881, 47.399909131515656 ] } },
{ "type": "Feature", "id": 113, "properties": { "CODE": "School - High", "NAME": "Mount Rainier High School", "ADDRESS": "22450 19th Ave S", "ZIPCODE": "98198", "DISTRICT": "HIGHLINE" }, "geometry": { "type": "Point", "coordinates": [ -122.307850801598391, 47.399056294070583 ] } },
{ "type": "Feature", "id": 114, "properties": { "CODE": "School - High", "NAME": "Highline High School", "ADDRESS": "225 S 152nd St", "ZIPCODE": "98148", "DISTRICT": "HIGHLINE" }, "geometry": { "type": "Point", "coordinates": [ -122.328707316036116, 47.466151323326301 ] } },
{ "type": "Feature", "id": 115, "properties": { "CODE": "School - Elementary", "NAME": "Cedar River Elementary School", "ADDRESS": "22615 Sweeney Rd SE", "ZIPCODE": "98038", "DISTRICT": "TAHOMA" }, "geometry": { "type": "Point", "coordinates": [ -122.051551263379537, 47.398278949102604 ] } },
{ "type": "Feature", "id": 116, "properties": { "CODE": "School - Elementary", "NAME": "Shadow Lake Elementary School", "ADDRESS": "22620 Sweeney Rd SE", "ZIPCODE": "98038", "DISTRICT": "TAHOMA" }, "geometry": { "type": "Point", "coordinates": [ -122.047131901560505, 47.398902150630889 ] } },
{ "type": "Feature", "id": 117, "properties": { "CODE": "School - Elementary", "NAME": "Rosa Parks Elementary School", "ADDRESS": "22845 NE Cedar Park Cres", "ZIPCODE": "98053", "DISTRICT": "LAKE WASHINGTON" }, "geometry": { "type": "Point", "coordinates": [ -122.035302147711661, 47.684931869907516 ] } },
{ "type": "Feature", "id": 118, "properties": { "CODE": "School - Other facility", "NAME": "John Stanford Center (Administration)", "ADDRESS": "230 S Lander St", "ZIPCODE": "98134", "DISTRICT": "SEATTLE" }, "geometry": { "type": "Point", "coordinates": [ -122.331370617602317, 47.580466269731104 ] } },
{ "type": "Feature", "id": 119, "properties": { "CODE": "School - Elementary", "NAME": "Discovery Elementary School", "ADDRESS": "2300 228th Ave SE", "ZIPCODE": "98075", "DISTRICT": "ISSAQUAH" }, "geometry": { "type": "Point", "coordinates": [ -122.033854605355742, 47.589238380786874 ] } },
{ "type": "Feature", "id": 120, "properties": { "CODE": "School - Junior High or Middle", "NAME": "Maple View Middle School", "ADDRESS": "18200 SE 240th ST", "ZIPCODE": "98042", "DISTRICT": "TAHOMA" }, "geometry": { "type": "Point", "coordinates": [ -122.101076691271231, 47.388257869074039 ] } },
{ "type": "Feature", "id": 121, "properties": { "CODE": "School - College or University", "NAME": "Art Institute of Seattle", "ADDRESS": "2323 Elliott Ave", "ZIPCODE": "98121", "DISTRICT": "SEATTLE" }, "geometry": { "type": "Point", "coordinates": [ -122.349192063714938, 47.612289839592293 ] } },
{ "type": "Feature", "id": 122, "properties": { "CODE": "School - Junior High or Middle", "NAME": "Meridian Middle School", "ADDRESS": "23480 120th Ave SE", "ZIPCODE": "98031", "DISTRICT": "KENT" }, "geometry": { "type": "Point", "coordinates": [ -122.180339737524548, 47.391205942039221 ] } },
{ "type": "Feature", "id": 123, "properties": { "CODE": "School - Elementary", "NAME": "Glacier Park Elementary School", "ADDRESS": "23700 SE 280th St", "ZIPCODE": "98038", "DISTRICT": "TAHOMA" }, "geometry": { "type": "Point", "coordinates": [ -122.025579351577363, 47.351609880144501 ] } },
{ "type": "Feature", "id": 124, "properties": { "CODE": "School - Elementary", "NAME": "Christa McAuliffe Elementary School", "ADDRESS": "23823 NE 22nd St", "ZIPCODE": "98074", "DISTRICT": "LAKE WASHINGTON" }, "geometry": { "type": "Point", "coordinates": [ -122.02089435322624, 47.628719490484443 ] } },
{ "type": "Feature", "id": 125, "properties": { "CODE": "School - Elementary", "NAME": "Green Lake Elementary School", "ADDRESS": "2400 N 65th St", "ZIPCODE": "98103", "DISTRICT": "SEATTLE" }, "geometry": { "type": "Point", "coordinates": [ -122.328909495727189, 47.676353705430131 ] } },
{ "type": "Feature", "id": 126, "properties": { "CODE": "School - K thru 12", "NAME": "Shoreline Christian School", "ADDRESS": "2400 NE 147th St", "ZIPCODE": "98155", "DISTRICT": "SHORELINE" }, "geometry": { "type": "Point", "coordinates": [ -122.302980303367178, 47.736425156471448 ] } },
{ "type": "Feature", "id": 127, "properties": { "CODE": "School - College or University", "NAME": "Highline College", "ADDRESS": "2400 S 240th St", "ZIPCODE": "98198", "DISTRICT": "HIGHLINE" }, "geometry": { "type": "Point", "coordinates": [ -122.300220289585866, 47.389780483246689 ] } },
{ "type": "Feature", "id": 128, "properties": { "CODE": "School - Elementary", "NAME": "Thurgood Marshall Elementary School", "ADDRESS": "2401 S Irving St", "ZIPCODE": "98144", "DISTRICT": "SEATTLE" }, "geometry": { "type": "Point", "coordinates": [ -122.299846115747286, 47.590959456514042 ] } },
{ "type": "Feature", "id": 129, "properties": { "CODE": "School - Junior High or Middle", "NAME": "Nelson Middle School", "ADDRESS": "2403 Jones Ave S", "ZIPCODE": "98055", "DISTRICT": "RENTON" }, "geometry": { "type": "Point", "coordinates": [ -122.198658930708632, 47.457818199229656 ] } },
{ "type": "Feature", "id": 130, "properties": { "CODE": "School - Elementary", "NAME": "Wildwood Elementary School", "ADDRESS": "2405 S 300th St", "ZIPCODE": "98003", "DISTRICT": "FEDERAL WAY" }, "geometry": { "type": "Point", "coordinates": [ -122.30148770056897, 47.332569151873038 ] } },
{ "type": "Feature", "id": 131, "properties": { "CODE": "School - Elementary", "NAME": "Montlake Elementary School", "ADDRESS": "2409 22nd Ave E", "ZIPCODE": "98112", "DISTRICT": "SEATTLE" }, "geometry": { "type": "Point", "coordinates": [ -122.304220841346478, 47.640634442585331 ] } },
{ "type": "Feature", "id": 132, "properties": { "CODE": "School - Alternative", "NAME": "Nova High School", "ADDRESS": "2410 E Cherry St", "ZIPCODE": "98122", "DISTRICT": "SEATTLE" }, "geometry": { "type": "Point", "coordinates": [ -122.300867371047474, 47.608349687142642 ] } },
{ "type": "Feature", "id": 133, "properties": { "CODE": "School - Elementary", "NAME": "Bellevue Montessori School", "ADDRESS": "2411 112th Ave NE", "ZIPCODE": "98004", "DISTRICT": "BELLEVUE" }, "geometry": { "type": "Point", "coordinates": [ -122.191386303337381, 47.632148868340543 ] } },
{ "type": "Feature", "id": 134, "properties": { "CODE": "School - Junior High or Middle", "NAME": "Inglewood Middle School", "ADDRESS": "24120 NE 8th St", "ZIPCODE": "98074", "DISTRICT": "LAKE WASHINGTON" }, "geometry": { "type": "Point", "coordinates": [ -122.017262675506231, 47.618670189447137 ] } },
{ "type": "Feature", "id": 135, "properties": { "CODE": "School - Elementary", "NAME": "Lake Wilderness Elementary School", "ADDRESS": "24216 Witte Rd SE", "ZIPCODE": "98038", "DISTRICT": "TAHOMA" }, "geometry": { "type": "Point", "coordinates": [ -122.047045177949244, 47.383869658777293 ] } },
{ "type": "Feature", "id": 136, "properties": { "CODE": "School - Elementary", "NAME": "Tahoma Elementary School", "ADDRESS": "24425 SE 216th St", "ZIPCODE": "98038", "DISTRICT": "TAHOMA" }, "geometry": { "type": "Point", "coordinates": [ -122.015120639967662, 47.407608469318994 ] } },
{ "type": "Feature", "id": 137, "properties": { "CODE": "School - Alternative", "NAME": "Skills Center High School", "ADDRESS": "2445 3rd Ave S", "ZIPCODE": "98134", "DISTRICT": "SEATTLE" }, "geometry": { "type": "Point", "coordinates": [ -122.330845189696916, 47.581923713949408 ] } },
{ "type": "Feature", "id": 138, "properties": { "CODE": "School - Elementary", "NAME": "Sunnycrest Elementary School", "ADDRESS": "24629 42nd Ave S", "ZIPCODE": "98032", "DISTRICT": "FEDERAL WAY" }, "geometry": { "type": "Point", "coordinates": [ -122.282154142561225, 47.38054765252442 ] } },
{ "type": "Feature", "id": 139, "properties": { "CODE": "School - Alternative", "NAME": "TOPS K-8 School (The Option Program at Seward)", "ADDRESS": "2500 Franklin Ave E", "ZIPCODE": "98102", "DISTRICT": "SEATTLE" }, "geometry": { "type": "Point", "coordinates": [ -122.324176704259017, 47.642286058093148 ] } },
{ "type": "Feature", "id": 140, "properties": { "CODE": "School - Elementary", "NAME": "Sierra Heights Elementary School", "ADDRESS": "2501 Union Ave NE", "ZIPCODE": "98059", "DISTRICT": "RENTON" }, "geometry": { "type": "Point", "coordinates": [ -122.165914126317716, 47.514265697130035 ] } },
{ "type": "Feature", "id": 141, "properties": { "CODE": "School - Junior High or Middle", "NAME": "Beaver Lake Middle School", "ADDRESS": "25025 SE 32nd St", "ZIPCODE": "98029", "DISTRICT": "ISSAQUAH" }, "geometry": { "type": "Point", "coordinates": [ -122.005691569626435, 47.579902902986575 ] } },
{ "type": "Feature", "id": 142, "properties": { "CODE": "School - Elementary", "NAME": "Loyal Heights Elementary School", "ADDRESS": "2511 NW 80th St", "ZIPCODE": "98117", "DISTRICT": "SEATTLE" }, "geometry": { "type": "Point", "coordinates": [ -122.389009548993016, 47.6863854724973 ] } },
{ "type": "Feature", "id": 143, "properties": { "CODE": "School - Elementary", "NAME": "Crestwood Elementary School", "ADDRESS": "25225 180th Ave SE", "ZIPCODE": "98042", "DISTRICT": "KENT" }, "geometry": { "type": "Point", "coordinates": [ -122.10358246712893, 47.375852370216514 ] } },
{ "type": "Feature", "id": 144, "properties": { "CODE": "School - K thru 12", "NAME": "Holy Innocents School of the Northwest", "ADDRESS": "2530 S 298th St", "ZIPCODE": "98003", "DISTRICT": "FEDERAL WAY" }, "geometry": { "type": "Point", "coordinates": [ -122.300002984638567, 47.335716991854007 ] } },
{ "type": "Feature", "id": 145, "properties": { "CODE": "School - Other facility", "NAME": "Aldercrest Learning Center", "ADDRESS": "2545 NE 200th St", "ZIPCODE": "98155", "DISTRICT": "SHORELINE" }, "geometry": { "type": "Point", "coordinates": [ -122.300691733899129, 47.7730846088117 ] } },
{ "type": "Feature", "id": 146, "properties": { "CODE": "School - High", "NAME": "Kentwood High School", "ADDRESS": "25800 164th Ave SE", "ZIPCODE": "98042", "DISTRICT": "KENT" }, "geometry": { "type": "Point", "coordinates": [ -122.119310297828164, 47.370023938119452 ] } },
{ "type": "Feature", "id": 147, "properties": { "CODE": "School - High", "NAME": "Chief Sealth International High School", "ADDRESS": "2600 SW Thistle St ", "ZIPCODE": "98126", "DISTRICT": "SEATTLE" }, "geometry": { "type": "Point", "coordinates": [ -122.366191029086963, 47.528890711330362 ] } },
{ "type": "Feature", "id": 148, "properties": { "CODE": "School - Junior High or Middle", "NAME": "David T. Denny International Middle School", "ADDRESS": "2601 SW Kenyon St", "ZIPCODE": "98126", "DISTRICT": "SEATTLE" }, "geometry": { "type": "Point", "coordinates": [ -122.366052898593423, 47.531352180495162 ] } },
{ "type": "Feature", "id": 149, "properties": { "CODE": "School - Alternative", "NAME": "Renton Academy", "ADDRESS": "2607 Jones Ave S", "ZIPCODE": "98055", "DISTRICT": "RENTON" }, "geometry": { "type": "Point", "coordinates": [ -122.197441463352817, 47.456404303379003 ] } },
{ "type": "Feature", "id": 150, "properties": { "CODE": "School - Elementary", "NAME": "Seattle Country Day School", "ADDRESS": "2619 4th Ave N", "ZIPCODE": "98109", "DISTRICT": "SEATTLE" }, "geometry": { "type": "Point", "coordinates": [ -122.350385664957827, 47.643631686765644 ] } },
{ "type": "Feature", "id": 151, "properties": { "CODE": "School - High", "NAME": "Rainier Christian High School", "ADDRESS": "26201 180th Ave SE", "ZIPCODE": "98042", "DISTRICT": "KENT" }, "geometry": { "type": "Point", "coordinates": [ -122.102875000174905, 47.366666866528512 ] } },
{ "type": "Feature", "id": 152, "properties": { "CODE": "School - Elementary", "NAME": "Lafayette Elementary School", "ADDRESS": "2645 California Ave SW", "ZIPCODE": "98116", "DISTRICT": "SEATTLE" }, "geometry": { "type": "Point", "coordinates": [ -122.387002927298909, 47.57989805396474 ] } },
{ "type": "Feature", "id": 153, "properties": { "CODE": "School - Elementary", "NAME": "Cedar Valley Elementary School", "ADDRESS": "26500 Timberlane Way SE", "ZIPCODE": "98042", "DISTRICT": "KENT" }, "geometry": { "type": "Point", "coordinates": [ -122.08566544113873, 47.364758207614585 ] } },
{ "type": "Feature", "id": 154, "properties": { "CODE": "School - Junior High or Middle", "NAME": "Totem MIddle School", "ADDRESS": "26630 40th Ave S", "ZIPCODE": "98032", "DISTRICT": "FEDERAL WAY" }, "geometry": { "type": "Point", "coordinates": [ -122.281827868316711, 47.36280307804266 ] } },
{ "type": "Feature", "id": 155, "properties": { "CODE": "School - Elementary", "NAME": "Cherry Valley Elementary School", "ADDRESS": "26701 NE Cherry Valley Rd", "ZIPCODE": "98019", "DISTRICT": "RIVERVIEW" }, "geometry": { "type": "Point", "coordinates": [ -121.982123873964767, 47.747195179702892 ] } },
{ "type": "Feature", "id": 156, "properties": { "CODE": "School - Elementary", "NAME": "Jenkins Creek Elementary School", "ADDRESS": "26915 186th Ave SE", "ZIPCODE": "98042", "DISTRICT": "KENT" }, "geometry": { "type": "Point", "coordinates": [ -122.094474171852767, 47.360372214680289 ] } },
{ "type": "Feature", "id": 157, "properties": { "CODE": "School - Elementary", "NAME": "Eton School", "ADDRESS": "2701 BelRed Rd", "ZIPCODE": "98008", "DISTRICT": "BELLEVUE" }, "geometry": { "type": "Point", "coordinates": [ -122.128468204621527, 47.634431228761798 ] } },
{ "type": "Feature", "id": 158, "properties": { "CODE": "School - Junior High or Middle", "NAME": "Seattle Girls School", "ADDRESS": "2706 S Jackson St", "ZIPCODE": "98144", "DISTRICT": "SEATTLE" }, "geometry": { "type": "Point", "coordinates": [ -122.297039239277908, 47.599536898367838 ] } },
{ "type": "Feature", "id": 159, "properties": { "CODE": "School - Elementary", "NAME": "Briarcrest Elementary School", "ADDRESS": "2715 NE 158th St", "ZIPCODE": "98155", "DISTRICT": "SHORELINE" }, "geometry": { "type": "Point", "coordinates": [ -122.297730323120291, 47.742242592398235 ] } },
{ "type": "Feature", "id": 160, "properties": { "CODE": "School - Elementary", "NAME": "Highlands Elementary School", "ADDRESS": "2720 NE 7th St", "ZIPCODE": "98056", "DISTRICT": "RENTON" }, "geometry": { "type": "Point", "coordinates": [ -122.182337670288248, 47.495498103721985 ] } },
{ "type": "Feature", "id": 161, "properties": { "CODE": "School - Elementary", "NAME": "Wedgewood Elementary School", "ADDRESS": "2720 NE 85th St ", "ZIPCODE": "98115", "DISTRICT": "SEATTLE" }, "geometry": { "type": "Point", "coordinates": [ -122.2971139472684, 47.690550571973034 ] } },
{ "type": "Feature", "id": 162, "properties": { "CODE": "School - Elementary", "NAME": "Shorewood Elementary School", "ADDRESS": "2725 SW 116th St", "ZIPCODE": "98146", "DISTRICT": "HIGHLINE" }, "geometry": { "type": "Point", "coordinates": [ -122.367966949986055, 47.498734494210254 ] } },
{ "type": "Feature", "id": 163, "properties": { "CODE": "School - Elementary", "NAME": "Horizon Elementary School", "ADDRESS": "27641 144th Ave SE", "ZIPCODE": "98042", "DISTRICT": "KENT" }, "geometry": { "type": "Point", "coordinates": [ -122.15193933714265, 47.353784259819662 ] } },
{ "type": "Feature", "id": 164, "properties": { "CODE": "School - Elementary", "NAME": "Meadow Ridge Elementary School", "ADDRESS": "27710 108th Ave SE", "ZIPCODE": "98030", "DISTRICT": "KENT" }, "geometry": { "type": "Point", "coordinates": [ -122.195757898272504, 47.353353248220017 ] } },
{ "type": "Feature", "id": 165, "properties": { "CODE": "School - Elementary", "NAME": "Cascade K-8 School", "ADDRESS": "2800 NE 200th St", "ZIPCODE": "98155", "DISTRICT": "SHORELINE" }, "geometry": { "type": "Point", "coordinates": [ -122.299580445812055, 47.774637132001445 ] } },
{ "type": "Feature", "id": 166, "properties": { "CODE": "School - High", "NAME": "Decatur High School", "ADDRESS": "2800 SW 320th St", "ZIPCODE": "98023", "DISTRICT": "FEDERAL WAY" }, "geometry": { "type": "Point", "coordinates": [ -122.367856035844355, 47.316909316406758 ] } },
{ "type": "Feature", "id": 167, "properties": { "CODE": "School - Elementary", "NAME": "The Little School", "ADDRESS": "2812 116th Ave NE", "ZIPCODE": "98004", "DISTRICT": "BELLEVUE" }, "geometry": { "type": "Point", "coordinates": [ -122.183768456550979, 47.636056231556047 ] } },
{ "type": "Feature", "id": 168, "properties": { "CODE": "School - Elementary", "NAME": "Dearborn Park International Elementary School", "ADDRESS": "2820 S Orcas St", "ZIPCODE": "98108", "DISTRICT": "SEATTLE" }, "geometry": { "type": "Point", "coordinates": [ -122.296286011004128, 47.552261028454289 ] } },
{ "type": "Feature", "id": 169, "properties": { "CODE": "School - Elementary", "NAME": "Grass Lake Elementary School", "ADDRESS": "28700 191st Pl SE", "ZIPCODE": "98042", "DISTRICT": "KENT" }, "geometry": { "type": "Point", "coordinates": [ -122.086571207303635, 47.344631296446188 ] } },
{ "type": "Feature", "id": 170, "properties": { "CODE": "School - High", "NAME": "Auburn Mountainview High School", "ADDRESS": "28900 124th Ave SE", "ZIPCODE": "98092", "DISTRICT": "AUBURN" }, "geometry": { "type": "Point", "coordinates": [ -122.171871594903919, 47.341982351253002 ] } },
{ "type": "Feature", "id": 171, "properties": { "CODE": "School - High", "NAME": "Cedarcrest High School", "ADDRESS": "29000 NE 150th St", "ZIPCODE": "98019", "DISTRICT": "RIVERVIEW" }, "geometry": { "type": "Point", "coordinates": [ -121.952479173676096, 47.735631682095814 ] } },
{ "type": "Feature", "id": 172, "properties": { "CODE": "School - Elementary", "NAME": "Arthur Jacobsen Elementary School", "ADDRESS": "29205 132nd Ave SE", "ZIPCODE": "98092", "DISTRICT": "AUBURN" }, "geometry": { "type": "Point", "coordinates": [ -122.168019214496539, 47.340083836053175 ] } },
{ "type": "Feature", "id": 173, "properties": { "CODE": "School - Other facility", "NAME": "Administration Center-Renton", "ADDRESS": "300 SW 7th St", "ZIPCODE": "98057", "DISTRICT": "RENTON" }, "geometry": { "type": "Point", "coordinates": [ -122.220773479587479, 47.474399112217434 ] } },
{ "type": "Feature", "id": 174, "properties": { "CODE": "School - High", "NAME": "West Seattle High School", "ADDRESS": "3000 California Ave SW", "ZIPCODE": "98116", "DISTRICT": "SEATTLE" }, "geometry": { "type": "Point", "coordinates": [ -122.385270448917908, 47.5769740076029 ] } },
{ "type": "Feature", "id": 175, "properties": { "CODE": "School - College or University", "NAME": "Bellevue College", "ADDRESS": "3000 Landerholm Cir SE", "ZIPCODE": "98007", "DISTRICT": "BELLEVUE" }, "geometry": { "type": "Point", "coordinates": [ -122.148941300985854, 47.58406923755927 ] } },
{ "type": "Feature", "id": 176, "properties": { "CODE": "School - College or University", "NAME": "Renton Technical College", "ADDRESS": "3000 NE 4th St", "ZIPCODE": "98056", "DISTRICT": "RENTON" }, "geometry": { "type": "Point", "coordinates": [ -122.176754181617881, 47.493913677327811 ] } },
{ "type": "Feature", "id": 177, "properties": { "CODE": "School - Elementary", "NAME": "Alki Elementary School", "ADDRESS": "3010 59th Ave SW", "ZIPCODE": "98116", "DISTRICT": "SEATTLE" }, "geometry": { "type": "Point", "coordinates": [ -122.407826505764348, 47.577141047685693 ] } },
{ "type": "Feature", "id": 178, "properties": { "CODE": "School - Elementary", "NAME": "Lake Grove Elementary School", "ADDRESS": "303 SW 308th St", "ZIPCODE": "98023", "DISTRICT": "FEDERAL WAY" }, "geometry": { "type": "Point", "coordinates": [ -122.338532734294702, 47.325537412239854 ] } },
{ "type": "Feature", "id": 179, "properties": { "CODE": "School - Elementary", "NAME": "John James Audubon Elementary School", "ADDRESS": "3045 180th Ave NE", "ZIPCODE": "98052", "DISTRICT": "LAKE WASHINGTON" }, "geometry": { "type": "Point", "coordinates": [ -122.101523198366039, 47.637353052906228 ] } },
{ "type": "Feature", "id": 180, "properties": { "CODE": "School - Elementary", "NAME": "St. Vincent De Paul School", "ADDRESS": "30527 8th Ave S", "ZIPCODE": "98003", "DISTRICT": "FEDERAL WAY" }, "geometry": { "type": "Point", "coordinates": [ -122.324609364687291, 47.327295643892633 ] } },
{ "type": "Feature", "id": 181, "properties": { "CODE": "School - High", "NAME": "Federal Way High School", "ADDRESS": "30611 16th Ave S", "ZIPCODE": "98003", "DISTRICT": "FEDERAL WAY" }, "geometry": { "type": "Point", "coordinates": [ -122.313940335862071, 47.328077350608098 ] } },
{ "type": "Feature", "id": 182, "properties": { "CODE": "School - Junior High or Middle", "NAME": "Rainier Middle School", "ADDRESS": "30620 116th Ave SE", "ZIPCODE": "98092", "DISTRICT": "AUBURN" }, "geometry": { "type": "Point", "coordinates": [ -122.185548819772833, 47.327408391199647 ] } },
{ "type": "Feature", "id": 183, "properties": { "CODE": "School - Elementary", "NAME": "Lea Hill Elementary School", "ADDRESS": "30908 124th Ave SE", "ZIPCODE": "98092", "DISTRICT": "AUBURN" }, "geometry": { "type": "Point", "coordinates": [ -122.175401091577442, 47.32499841553458 ] } },
{ "type": "Feature", "id": 184, "properties": { "CODE": "School - Alternative", "NAME": "Truman High School Campus", "ADDRESS": "31455 28th Ave S", "ZIPCODE": "98003", "DISTRICT": "FEDERAL WAY" }, "geometry": { "type": "Point", "coordinates": [ -122.298832899494002, 47.319291290496814 ] } },
{ "type": "Feature", "id": 185, "properties": { "CODE": "School - K thru 12", "NAME": "Internet Academy", "ADDRESS": "31457 28th Ave S", "ZIPCODE": "98003", "DISTRICT": "FEDERAL WAY" }, "geometry": { "type": "Point", "coordinates": [ -122.299735335036544, 47.319260671839231 ] } },
{ "type": "Feature", "id": 186, "properties": { "CODE": "School - Elementary", "NAME": "The Valley School", "ADDRESS": "318 30th Ave E", "ZIPCODE": "98112", "DISTRICT": "SEATTLE" }, "geometry": { "type": "Point", "coordinates": [ -122.292951629578042, 47.621898188039928 ] } },
{ "type": "Feature", "id": 187, "properties": { "CODE": "School - Junior High or Middle", "NAME": "Pine Lake Middle School", "ADDRESS": "3200 228th Ave SE", "ZIPCODE": "98075", "DISTRICT": "ISSAQUAH" }, "geometry": { "type": "Point", "coordinates": [ -122.033910032102, 47.580921841474421 ] } },
{ "type": "Feature", "id": 188, "properties": { "CODE": "School - Elementary", "NAME": "Elizabeth Blackwell Elementary School", "ADDRESS": "3225 205th Pl NE", "ZIPCODE": "98074", "DISTRICT": "LAKE WASHINGTON" }, "geometry": { "type": "Point", "coordinates": [ -122.06703750691436, 47.638732737538334 ] } },
{ "type": "Feature", "id": 189, "properties": { "CODE": "School - Alternative", "NAME": "Riverview Learning Center", "ADDRESS": "32302 NE 50th St", "ZIPCODE": "98014", "DISTRICT": "RIVERVIEW" }, "geometry": { "type": "Point", "coordinates": [ -121.907974686384819, 47.652343077426522 ] } },
{ "type": "Feature", "id": 190, "properties": { "CODE": "School - Elementary", "NAME": "Green Gables Elementary School", "ADDRESS": "32607 47th Ave SW", "ZIPCODE": "98023", "DISTRICT": "FEDERAL WAY" }, "geometry": { "type": "Point", "coordinates": [ -122.393907887607725, 47.3092098332788 ] } },
{ "type": "Feature", "id": 191, "properties": { "CODE": "School - Alternative", "NAME": "Two Rivers School", "ADDRESS": "330 Ballarat Ave N", "ZIPCODE": "98045", "DISTRICT": "SNOQUALMIE VALLEY" }, "geometry": { "type": "Point", "coordinates": [ -121.78207972389886, 47.496156461990374 ] } },
{ "type": "Feature", "id": 192, "properties": { "CODE": "School - Elementary", "NAME": "John Muir Elementary School-Seattle", "ADDRESS": "3301 S Horton St", "ZIPCODE": "98144", "DISTRICT": "SEATTLE" }, "geometry": { "type": "Point", "coordinates": [ -122.290578825219939, 47.573241964223811 ] } },
{ "type": "Feature", "id": 193, "properties": { "CODE": "School - Elementary", "NAME": "William Cullen Bryant Elementary School", "ADDRESS": "3311 NE 60th St", "ZIPCODE": "98115", "DISTRICT": "SEATTLE" }, "geometry": { "type": "Point", "coordinates": [ -122.292006778105318, 47.671515451439859 ] } },
{ "type": "Feature", "id": 194, "properties": { "CODE": "School - Elementary", "NAME": "Buena Vista Seventh-day Adventist School", "ADDRESS": "3320 Academy Dr SE", "ZIPCODE": "98092", "DISTRICT": "AUBURN" }, "geometry": { "type": "Point", "coordinates": [ -122.157173074113288, 47.280657644136049 ] } },
{ "type": "Feature", "id": 195, "properties": { "CODE": "School - Elementary", "NAME": "Fall City Elementary School", "ADDRESS": "33314 SE 42nd St", "ZIPCODE": "98024", "DISTRICT": "SNOQUALMIE VALLEY" }, "geometry": { "type": "Point", "coordinates": [ -121.896113799518702, 47.569552060417784 ] } },
{ "type": "Feature", "id": 196, "properties": { "CODE": "School - Elementary", "NAME": "St. Anthony Elementary School", "ADDRESS": "336 Shattuck Ave S", "ZIPCODE": "98057", "DISTRICT": "RENTON" }, "geometry": { "type": "Point", "coordinates": [ -122.21298550845556, 47.478415013490398 ] } },
{ "type": "Feature", "id": 197, "properties": { "CODE": "School - K thru 12", "NAME": "Christian Faith School", "ADDRESS": "33645 20th Ave S", "ZIPCODE": "98003", "DISTRICT": "FEDERAL WAY" }, "geometry": { "type": "Point", "coordinates": [ -122.308728491251614, 47.298858379090696 ] } },
{ "type": "Feature", "id": 198, "properties": { "CODE": "School - Junior High or Middle", "NAME": "Technology Access Foundation Academy at Saghalie", "ADDRESS": "33914 19th Ave SW", "ZIPCODE": "98023", "DISTRICT": "FEDERAL WAY" }, "geometry": { "type": "Point", "coordinates": [ -122.354995794385999, 47.297573622063275 ] } },
{ "type": "Feature", "id": 199, "properties": { "CODE": "School - K thru 12", "NAME": "Bush School", "ADDRESS": "3400 E Harrison St", "ZIPCODE": "98112", "DISTRICT": "SEATTLE" }, "geometry": { "type": "Point", "coordinates": [ -122.288664766610637, 47.622912777401261 ] } },
{ "type": "Feature", "id": 200, "properties": { "CODE": "School - Elementary", "NAME": "Our Lady of Guadalupe Catholic School", "ADDRESS": "3401 SW Myrtle St", "ZIPCODE": "98126", "DISTRICT": "SEATTLE" }, "geometry": { "type": "Point", "coordinates": [ -122.375636109828008, 47.538872791586101 ] } },
{ "type": "Feature", "id": 201, "properties": { "CODE": "School - Junior High or Middle", "NAME": "Sequoyah Middle School", "ADDRESS": "3425 S 360th St  ", "ZIPCODE": "98001", "DISTRICT": "FEDERAL WAY" }, "geometry": { "type": "Point", "coordinates": [ -122.288400796002065, 47.277940085609643 ] } },
{ "type": "Feature", "id": 202, "properties": { "CODE": "School - Junior High or Middle", "NAME": "James Madison Middle School", "ADDRESS": "3429 45th Ave SW", "ZIPCODE": "98116", "DISTRICT": "SEATTLE" }, "geometry": { "type": "Point", "coordinates": [ -122.390281254884755, 47.572981633400317 ] } },
{ "type": "Feature", "id": 203, "properties": { "CODE": "School - Elementary", "NAME": "Panther Lake Elementary School", "ADDRESS": "34424 1st Ave S", "ZIPCODE": "98003", "DISTRICT": "FEDERAL WAY" }, "geometry": { "type": "Point", "coordinates": [ -122.333389641306553, 47.293562790800479 ] } },
{ "type": "Feature", "id": 204, "properties": { "CODE": "School - Alternative", "NAME": "Federal Way Public Academy", "ADDRESS": "34620 9th Ave S", "ZIPCODE": "98003", "DISTRICT": "FEDERAL WAY" }, "geometry": { "type": "Point", "coordinates": [ -122.322006078044339, 47.291223480724717 ] } },
{ "type": "Feature", "id": 205, "properties": { "CODE": "School - Elementary", "NAME": "Chinook Elementary School", "ADDRESS": "3502 Auburn Way S", "ZIPCODE": "98092", "DISTRICT": "AUBURN" }, "geometry": { "type": "Point", "coordinates": [ -122.1810628763549, 47.28962106622442 ] } },
{ "type": "Feature", "id": 206, "properties": { "CODE": "School - Elementary", "NAME": "Enterprise Elementary School", "ADDRESS": "35101 5th Ave SW", "ZIPCODE": "98023", "DISTRICT": "FEDERAL WAY" }, "geometry": { "type": "Point", "coordinates": [ -122.341086889421391, 47.28724434100355 ] } },
{ "type": "Feature", "id": 207, "properties": { "CODE": "School - Elementary", "NAME": "Our Lady of the Lake School", "ADDRESS": "3520 NE 89th St", "ZIPCODE": "98115", "DISTRICT": "SEATTLE" }, "geometry": { "type": "Point", "coordinates": [ -122.289320466785313, 47.693581575952436 ] } },
{ "type": "Feature", "id": 208, "properties": { "CODE": "School - Elementary", "NAME": "Lakeland Elementary School", "ADDRESS": "35827 32nd Ave S", "ZIPCODE": "98001", "DISTRICT": "FEDERAL WAY" }, "geometry": { "type": "Point", "coordinates": [ -122.293389719086633, 47.280431277706221 ] } },
{ "type": "Feature", "id": 209, "properties": { "CODE": "School - High", "NAME": "Todd Beamer High School", "ADDRESS": "35999 16th Ave S", "ZIPCODE": "98003", "DISTRICT": "FEDERAL WAY" }, "geometry": { "type": "Point", "coordinates": [ -122.314374950137903, 47.277471222871547 ] } },
{ "type": "Feature", "id": 210, "properties": { "CODE": "School - Elementary", "NAME": "Brigadoon Elementary School", "ADDRESS": "3601 SW 336th St", "ZIPCODE": "98023", "DISTRICT": "FEDERAL WAY" }, "geometry": { "type": "Point", "coordinates": [ -122.378171186857884, 47.299869867527271 ] } },
{ "type": "Feature", "id": 211, "properties": { "CODE": "School - Elementary", "NAME": "Makkah Islamic School", "ADDRESS": "3613 S Juneau St", "ZIPCODE": "98118", "DISTRICT": "SEATTLE" }, "geometry": { "type": "Point", "coordinates": [ -122.286478643638816, 47.549441949942214 ] } },
{ "type": "Feature", "id": 212, "properties": { "CODE": "School - Elementary", "NAME": "Wing Luke Elementary School", "ADDRESS": "3701 S Kenyon St ", "ZIPCODE": "98118", "DISTRICT": "SEATTLE" }, "geometry": { "type": "Point", "coordinates": [ -122.284904524997572, 47.530739828220021 ] } },
{ "type": "Feature", "id": 213, "properties": { "CODE": "School - Elementary", "NAME": "Arbor Heights Elementary School", "ADDRESS": "3701 SW 104th St", "ZIPCODE": "98146", "DISTRICT": "SEATTLE" }, "geometry": { "type": "Point", "coordinates": [ -122.377585812626464, 47.509701128249276 ] } },
{ "type": "Feature", "id": 214, "properties": { "CODE": "School - Elementary", "NAME": "McMicken Heights Elementary School", "ADDRESS": "3708 S 168th St", "ZIPCODE": "98188", "DISTRICT": "HIGHLINE" }, "geometry": { "type": "Point", "coordinates": [ -122.285208312760773, 47.453288757769066 ] } },
{ "type": "Feature", "id": 215, "properties": { "CODE": "School - Junior High or Middle", "NAME": "Tolt Middle School", "ADDRESS": "3740 Tolt Ave", "ZIPCODE": "98014", "DISTRICT": "RIVERVIEW" }, "geometry": { "type": "Point", "coordinates": [ -121.914325744687801, 47.642423612533555 ] } },
{ "type": "Feature", "id": 216, "properties": { "CODE": "School - Alternative", "NAME": "Gibson Ek", "ADDRESS": "379 1st Pl SE", "ZIPCODE": "98027", "DISTRICT": "ISSAQUAH" }, "geometry": { "type": "Point", "coordinates": [ -122.034189922824012, 47.526644452916727 ] } },
{ "type": "Feature", "id": 217, "properties": { "CODE": "School - Alternative", "NAME": "French-American School of Puget Sound", "ADDRESS": "3795 E Mercer Way", "ZIPCODE": "98040", "DISTRICT": "MERCER ISLAND" }, "geometry": { "type": "Point", "coordinates": [ -122.207742587344541, 47.576612250611674 ] } },
{ "type": "Feature", "id": 218, "properties": { "CODE": "School - Elementary", "NAME": "Fairmount Park Elementary School", "ADDRESS": "3800 SW Findlay St", "ZIPCODE": "98126", "DISTRICT": "SEATTLE" }, "geometry": { "type": "Point", "coordinates": [ -122.380189329391555, 47.552573227257326 ] } },
{ "type": "Feature", "id": 219, "properties": { "CODE": "School - Alternative", "NAME": "Puesta Del Sol Elementary", "ADDRESS": "3810 132nd Ave SE", "ZIPCODE": "98006", "DISTRICT": "BELLEVUE" }, "geometry": { "type": "Point", "coordinates": [ -122.163815420902139, 47.575547120567158 ] } },
{ "type": "Feature", "id": 220, "properties": { "CODE": "School - Elementary", "NAME": "B.F. Day Elementary School", "ADDRESS": "3921 Linden Ave N", "ZIPCODE": "98103", "DISTRICT": "SEATTLE" }, "geometry": { "type": "Point", "coordinates": [ -122.349050466606201, 47.654757386266709 ] } },
{ "type": "Feature", "id": 221, "properties": { "CODE": "School - Alternative", "NAME": "Ida B. Wells School of Social Justice", "ADDRESS": "3923 Okanogan Ln NE", "ZIPCODE": "98195", "DISTRICT": "SEATTLE" }, "geometry": { "type": "Point", "coordinates": [ -122.309937674878668, 47.653790553079318 ] } },
{ "type": "Feature", "id": 222, "properties": { "CODE": "School - Junior High or Middle", "NAME": "Aki Kurose Middle School", "ADDRESS": "3928 S Graham St", "ZIPCODE": "98118", "DISTRICT": "SEATTLE" }, "geometry": { "type": "Point", "coordinates": [ -122.281981381772894, 47.546321409000825 ] } },
{ "type": "Feature", "id": 223, "properties": { "CODE": "School - Elementary", "NAME": "Snoqualmie Elementary School", "ADDRESS": "39801 SE Park St", "ZIPCODE": "98065", "DISTRICT": "SNOQUALMIE VALLEY" }, "geometry": { "type": "Point", "coordinates": [ -121.810231070147637, 47.523301974463806 ] } },
{ "type": "Feature", "id": 224, "properties": { "CODE": "School - Alternative", "NAME": "Renaissance School of Art and Reasoning", "ADDRESS": "400 228th Ave NE", "ZIPCODE": "98074", "DISTRICT": "LAKE WASHINGTON" }, "geometry": { "type": "Point", "coordinates": [ -122.030799345756975, 47.613404104153688 ] } },
{ "type": "Feature", "id": 225, "properties": { "CODE": "School - High", "NAME": "James A. Garfield High School", "ADDRESS": "400 23rd Ave", "ZIPCODE": "98122", "DISTRICT": "SEATTLE" }, "geometry": { "type": "Point", "coordinates": [ -122.301826638182945, 47.605129183779333 ] } },
{ "type": "Feature", "id": 226, "properties": { "CODE": "School - Elementary", "NAME": "North Bend Elementary School", "ADDRESS": "400 E 3rd St", "ZIPCODE": "98045", "DISTRICT": "SNOQUALMIE VALLEY" }, "geometry": { "type": "Point", "coordinates": [ -121.779266208842046, 47.49404415248695 ] } },
{ "type": "Feature", "id": 227, "properties": { "CODE": "School - High", "NAME": "Renton High School", "ADDRESS": "400 S 2nd St", "ZIPCODE": "98057", "DISTRICT": "RENTON" }, "geometry": { "type": "Point", "coordinates": [ -122.211888511057566, 47.481746077965546 ] } },
{ "type": "Feature", "id": 228, "properties": { "CODE": "School - College or University", "NAME": "University of Washington-HUB", "ADDRESS": "4001 E Stevens Way NE", "ZIPCODE": "98195", "DISTRICT": "SEATTLE" }, "geometry": { "type": "Point", "coordinates": [ -122.305312281419134, 47.655257071445966 ] } },
{ "type": "Feature", "id": 229, "properties": { "CODE": "School - College or University", "NAME": "University of Washington", "ADDRESS": "4001 E Stevens Way NE", "ZIPCODE": "98195", "DISTRICT": "SEATTLE" }, "geometry": { "type": "Point", "coordinates": [ -122.305308302219004, 47.655259864859211 ] } },
{ "type": "Feature", "id": 230, "properties": { "CODE": "School - Alternative", "NAME": "Middle College High School at Northgate Mall", "ADDRESS": "401 NE Northgate Way", "ZIPCODE": "98125", "DISTRICT": "SEATTLE" }, "geometry": { "type": "Point", "coordinates": [ -122.32531490330561, 47.707977675845584 ] } },
{ "type": "Feature", "id": 231, "properties": { "CODE": "School - Other facility", "NAME": "Highline Performing Arts Center", "ADDRESS": "401 S 152nd St", "ZIPCODE": "98148", "DISTRICT": "HIGHLINE" }, "geometry": { "type": "Point", "coordinates": [ -122.328621302922045, 47.46653633794994 ] } },
{ "type": "Feature", "id": 232, "properties": { "CODE": "School - High", "NAME": "West Auburn High School", "ADDRESS": "401 W Main St", "ZIPCODE": "98001", "DISTRICT": "AUBURN" }, "geometry": { "type": "Point", "coordinates": [ -122.234563995280823, 47.308616715659696 ] } },
{ "type": "Feature", "id": 233, "properties": { "CODE": "School - Elementary", "NAME": "Star Lake Elementary School", "ADDRESS": "4014 S 270th St", "ZIPCODE": "98032", "DISTRICT": "FEDERAL WAY" }, "geometry": { "type": "Point", "coordinates": [ -122.282828219771176, 47.360311541698749 ] } },
{ "type": "Feature", "id": 234, "properties": { "CODE": "School - Elementary", "NAME": "Lawton Elementary School", "ADDRESS": "4017 26th Ave W", "ZIPCODE": "98199", "DISTRICT": "SEATTLE" }, "geometry": { "type": "Point", "coordinates": [ -122.390220252446596, 47.656590323168842 ] } },
{ "type": "Feature", "id": 235, "properties": { "CODE": "School - Elementary", "NAME": "Hazel Valley Elementary School", "ADDRESS": "402 SW 132nd St", "ZIPCODE": "98146", "DISTRICT": "HIGHLINE" }, "geometry": { "type": "Point", "coordinates": [ -122.340653568292225, 47.485656261897226 ] } },
{ "type": "Feature", "id": 236, "properties": { "CODE": "School - Elementary", "NAME": "Northwood Elementary School", "ADDRESS": "4030 86th Ave SE", "ZIPCODE": "98040", "DISTRICT": "MERCER ISLAND" }, "geometry": { "type": "Point", "coordinates": [ -122.223237614327758, 47.573723106792919 ] } },
{ "type": "Feature", "id": 237, "properties": { "CODE": "School - Elementary", "NAME": "John Rogers Elementary School", "ADDRESS": "4030 NE 109th St", "ZIPCODE": "98125", "DISTRICT": "SEATTLE" }, "geometry": { "type": "Point", "coordinates": [ -122.28460862468097, 47.70707457558084 ] } },
{ "type": "Feature", "id": 238, "properties": { "CODE": "School - Elementary", "NAME": "Camelot Elementary School", "ADDRESS": "4041 S 298th St", "ZIPCODE": "98001", "DISTRICT": "FEDERAL WAY" }, "geometry": { "type": "Point", "coordinates": [ -122.284815613715793, 47.334218228773999 ] } },
{ "type": "Feature", "id": 239, "properties": { "CODE": "School - Elementary", "NAME": "Hawthorne Elementary School", "ADDRESS": "4100 39th Ave S", "ZIPCODE": "98118", "DISTRICT": "SEATTLE" }, "geometry": { "type": "Point", "coordinates": [ -122.283385029216603, 47.565905912395856 ] } },
{ "type": "Feature", "id": 240, "properties": { "CODE": "School - High", "NAME": "St. Christopher Academy", "ADDRESS": "4100 SW Genesee St", "ZIPCODE": "98116", "DISTRICT": "SEATTLE" }, "geometry": { "type": "Point", "coordinates": [ -122.38454613169209, 47.565039528326523 ] } },
{ "type": "Feature", "id": 241, "properties": { "CODE": "School - High", "NAME": "Seattle Lutheran High School", "ADDRESS": "4100 SW Genesee St", "ZIPCODE": "98116", "DISTRICT": "SEATTLE" }, "geometry": { "type": "Point", "coordinates": [ -122.384546050051398, 47.565036787397446 ] } },
{ "type": "Feature", "id": 242, "properties": { "CODE": "School - Other facility", "NAME": "Mot Office Building", "ADDRESS": "4120 86th Ave SE", "ZIPCODE": "98040", "DISTRICT": "MERCER ISLAND" }, "geometry": { "type": "Point", "coordinates": [ -122.223751842570053, 47.572647464254523 ] } },
{ "type": "Feature", "id": 243, "properties": { "CODE": "School - Elementary", "NAME": "West Mercer Elementary School", "ADDRESS": "4141 81st Ave SE", "ZIPCODE": "98040", "DISTRICT": "MERCER ISLAND" }, "geometry": { "type": "Point", "coordinates": [ -122.231106969250121, 47.571633252160446 ] } },
{ "type": "Feature", "id": 244, "properties": { "CODE": "School - Elementary", "NAME": "Holy Rosary School", "ADDRESS": "4142 42nd Ave SW", "ZIPCODE": "98116", "DISTRICT": "SEATTLE" }, "geometry": { "type": "Point", "coordinates": [ -122.385019313250183, 47.565419699107949 ] } },
{ "type": "Feature", "id": 245, "properties": { "CODE": "School - Elementary", "NAME": "Christ the King School", "ADDRESS": "415 N 117th St", "ZIPCODE": "98133", "DISTRICT": "SEATTLE" }, "geometry": { "type": "Point", "coordinates": [ -122.35352779574346, 47.713917067819963 ] } },
{ "type": "Feature", "id": 246, "properties": { "CODE": "School - Other facility", "NAME": "Administration Center-Mercer Island", "ADDRESS": "4160 86th Ave SE", "ZIPCODE": "98040", "DISTRICT": "MERCER ISLAND" }, "geometry": { "type": "Point", "coordinates": [ -122.22347413047595, 47.571351180768538 ] } },
{ "type": "Feature", "id": 247, "properties": { "CODE": "School - College or University", "NAME": "Green River College - Kent Campus", "ADDRESS": "417 Ramsay Way ", "ZIPCODE": "98032", "DISTRICT": "KENT" }, "geometry": { "type": "Point", "coordinates": [ -122.235136941810666, 47.384492572406899 ] } },
{ "type": "Feature", "id": 248, "properties": { "CODE": "School - Junior High or Middle", "NAME": "Thunder Mountain Middle School", "ADDRESS": "42018 264th Ave SE", "ZIPCODE": "98022", "DISTRICT": "ENUMCLAW" }, "geometry": { "type": "Point", "coordinates": [ -121.987510185727572, 47.223105306720761 ] } },
{ "type": "Feature", "id": 249, "properties": { "CODE": "School - Elementary", "NAME": "St. Edward School", "ADDRESS": "4212 S Mead St", "ZIPCODE": "98118", "DISTRICT": "SEATTLE" }, "geometry": { "type": "Point", "coordinates": [ -122.279108990447895, 47.550660146513813 ] } },
{ "type": "Feature", "id": 250, "properties": { "CODE": "School - Elementary", "NAME": "Louisa May Alcott School", "ADDRESS": "4213 228th Ave NE", "ZIPCODE": "98053", "DISTRICT": "LAKE WASHINGTON" }, "geometry": { "type": "Point", "coordinates": [ -122.037559367893948, 47.646722702148956 ] } },
{ "type": "Feature", "id": 251, "properties": { "CODE": "School - High", "NAME": "Foster High School", "ADDRESS": "4242 S 144th St", "ZIPCODE": "98168", "DISTRICT": "TUKWILA" }, "geometry": { "type": "Point", "coordinates": [ -122.279995567493273, 47.474660489212596 ] } },
{ "type": "Feature", "id": 252, "properties": { "CODE": "School - High", "NAME": "Thomas Jefferson High School", "ADDRESS": "4248 S 288th St", "ZIPCODE": "98001", "DISTRICT": "FEDERAL WAY" }, "geometry": { "type": "Point", "coordinates": [ -122.278973669212249, 47.34422985449072 ] } },
{ "type": "Feature", "id": 253, "properties": { "CODE": "School - Elementary", "NAME": "Eastgate Elementary School", "ADDRESS": "4255 153rd Ave SE", "ZIPCODE": "98006", "DISTRICT": "BELLEVUE" }, "geometry": { "type": "Point", "coordinates": [ -122.137869768566972, 47.570166542329602 ] } },
{ "type": "Feature", "id": 254, "properties": { "CODE": "School - Junior High or Middle", "NAME": "Kirkland Middle School", "ADDRESS": "430 18th Ave", "ZIPCODE": "98033", "DISTRICT": "LAKE WASHINGTON" }, "geometry": { "type": "Point", "coordinates": [ -122.201029845080384, 47.690055151473572 ] } },
{ "type": "Feature", "id": 255, "properties": { "CODE": "School - Alternative", "NAME": "Tesla STEM High School", "ADDRESS": "4301 228th Ave NE", "ZIPCODE": "98053", "DISTRICT": "LAKE WASHINGTON" }, "geometry": { "type": "Point", "coordinates": [ -122.03775896978334, 47.648683735816924 ] } },
{ "type": "Feature", "id": 256, "properties": { "CODE": "School - Elementary", "NAME": "St. Monica Catholic School", "ADDRESS": "4320 87th Ave SE", "ZIPCODE": "98040", "DISTRICT": "MERCER ISLAND" }, "geometry": { "type": "Point", "coordinates": [ -122.222444775777774, 47.568912468714984 ] } },
{ "type": "Feature", "id": 257, "properties": { "CODE": "School - Elementary", "NAME": "Gatewood Elementary School", "ADDRESS": "4320 SW Myrtle St", "ZIPCODE": "98136", "DISTRICT": "SEATTLE" }, "geometry": { "type": "Point", "coordinates": [ -122.388497409093716, 47.540252240892301 ] } },
{ "type": "Feature", "id": 258, "properties": { "CODE": "School - Alternative", "NAME": "Big Picture Schools", "ADDRESS": "440 S 186th St", "ZIPCODE": "98148", "DISTRICT": "HIGHLINE" }, "geometry": { "type": "Point", "coordinates": [ -122.328025098318165, 47.436971658652993 ] } },
{ "type": "Feature", "id": 259, "properties": { "CODE": "School - Junior High or Middle", "NAME": "Kilo Middle School", "ADDRESS": "4400 S 308th St", "ZIPCODE": "98001", "DISTRICT": "FEDERAL WAY" }, "geometry": { "type": "Point", "coordinates": [ -122.278121386312307, 47.326812847786449 ] } },
{ "type": "Feature", "id": 260, "properties": { "CODE": "School - Elementary", "NAME": "Twin Lakes Elementary School", "ADDRESS": "4400 SW 320th St", "ZIPCODE": "98023", "DISTRICT": "FEDERAL WAY" }, "geometry": { "type": "Point", "coordinates": [ -122.388242993163118, 47.315975647291609 ] } },
{ "type": "Feature", "id": 261, "properties": { "CODE": "School - Elementary", "NAME": "Thorndyke Elementary School", "ADDRESS": "4415 S 150th St", "ZIPCODE": "98188", "DISTRICT": "TUKWILA" }, "geometry": { "type": "Point", "coordinates": [ -122.276642984026722, 47.468377444383705 ] } },
{ "type": "Feature", "id": 262, "properties": { "CODE": "School - Elementary", "NAME": "Hope Lutheran School", "ADDRESS": "4456 42nd Ave SW", "ZIPCODE": "98116", "DISTRICT": "SEATTLE" }, "geometry": { "type": "Point", "coordinates": [ -122.385069119183356, 47.56342006603937 ] } },
{ "type": "Feature", "id": 263, "properties": { "CODE": "School - Elementary", "NAME": "Laurelhurst Elementary School", "ADDRESS": "4530 46th Ave NE", "ZIPCODE": "98105", "DISTRICT": "SEATTLE" }, "geometry": { "type": "Point", "coordinates": [ -122.277847917251222, 47.662197684822132 ] } },
{ "type": "Feature", "id": 264, "properties": { "CODE": "School - Other facility", "NAME": "Camp Waskowitz", "ADDRESS": "45505 SE 150th St", "ZIPCODE": "98045", "DISTRICT": "SNOQUALMIE VALLEY" }, "geometry": { "type": "Point", "coordinates": [ -121.733821804750619, 47.469475353661416 ] } },
{ "type": "Feature", "id": 265, "properties": { "CODE": "School - Junior High or Middle", "NAME": "Showalter Middle School", "ADDRESS": "4628 S 144th St", "ZIPCODE": "98168", "DISTRICT": "TUKWILA" }, "geometry": { "type": "Point", "coordinates": [ -122.274957070989103, 47.474828796575231 ] } },
{ "type": "Feature", "id": 266, "properties": { "CODE": "School - Elementary", "NAME": "Cougar Ridge Elementary School", "ADDRESS": "4630 167th Ave SE", "ZIPCODE": "98006", "DISTRICT": "ISSAQUAH" }, "geometry": { "type": "Point", "coordinates": [ -122.11740532377614, 47.561938071610548 ] } },
{ "type": "Feature", "id": 267, "properties": { "CODE": "School - Other facility", "NAME": "Administration Center-Tukwila", "ADDRESS": "4640 S 144th St", "ZIPCODE": "98168", "DISTRICT": "TUKWILA" }, "geometry": { "type": "Point", "coordinates": [ -122.274086217557624, 47.474340816528404 ] } },
{ "type": "Feature", "id": 268, "properties": { "CODE": "School - Elementary", "NAME": "The Meridian School", "ADDRESS": "4649 Sunnyside Ave N", "ZIPCODE": "98103", "DISTRICT": "SEATTLE" }, "geometry": { "type": "Point", "coordinates": [ -122.331522079829853, 47.66346760702973 ] } },
{ "type": "Feature", "id": 269, "properties": { "CODE": "School - Junior High or Middle", "NAME": "Twin Falls Middle School", "ADDRESS": "46910 SE Middle Fork Rd", "ZIPCODE": "98045", "DISTRICT": "SNOQUALMIE VALLEY" }, "geometry": { "type": "Point", "coordinates": [ -121.714742500692893, 47.47362797265189 ] } },
{ "type": "Feature", "id": 270, "properties": { "CODE": "School - High", "NAME": "Forest Ridge School of the Sacred Heart", "ADDRESS": "4800 139th Ave SE", "ZIPCODE": "98006", "DISTRICT": "BELLEVUE" }, "geometry": { "type": "Point", "coordinates": [ -122.155368173840529, 47.558991364803376 ] } },
{ "type": "Feature", "id": 271, "properties": { "CODE": "School - Junior High or Middle", "NAME": "Forest Ridge School of the Sacred Heart", "ADDRESS": "4800 139th Ave SE", "ZIPCODE": "98006", "DISTRICT": "BELLEVUE" }, "geometry": { "type": "Point", "coordinates": [ -122.155877696009043, 47.559117048884907 ] } },
{ "type": "Feature", "id": 272, "properties": { "CODE": "School - Elementary", "NAME": "South Shore K-8 School", "ADDRESS": "4800 S Henderson St", "ZIPCODE": "98118", "DISTRICT": "SEATTLE" }, "geometry": { "type": "Point", "coordinates": [ -122.271995335096037, 47.52390925878786 ] } },
{ "type": "Feature", "id": 273, "properties": { "CODE": "School - Elementary", "NAME": "St. Benedict School", "ADDRESS": "4811 Wallingford Ave N", "ZIPCODE": "98103", "DISTRICT": "SEATTLE" }, "geometry": { "type": "Point", "coordinates": [ -122.336795403386262, 47.66391362180368 ] } },
{ "type": "Feature", "id": 274, "properties": { "CODE": "School - Elementary", "NAME": "KapKa Cooperative School", "ADDRESS": "4918 Linden Ave N", "ZIPCODE": "98103", "DISTRICT": "SEATTLE" }, "geometry": { "type": "Point", "coordinates": [ -122.348348584779274, 47.664791539624808 ] } },
{ "type": "Feature", "id": 275, "properties": { "CODE": "School - Elementary", "NAME": "Maple Elementary School", "ADDRESS": "4925 Corson Ave S", "ZIPCODE": "98108", "DISTRICT": "SEATTLE" }, "geometry": { "type": "Point", "coordinates": [ -122.318895863373527, 47.558126299921085 ] } },
{ "type": "Feature", "id": 276, "properties": { "CODE": "School - Elementary", "NAME": "Carnation School", "ADDRESS": "4950 Tolt Ave", "ZIPCODE": "98014", "DISTRICT": "RIVERVIEW" }, "geometry": { "type": "Point", "coordinates": [ -121.911207694634072, 47.651511932724183 ] } },
{ "type": "Feature", "id": 277, "properties": { "CODE": "School - High", "NAME": "Auburn Adventist Academy High School", "ADDRESS": "5000 Auburn Way S", "ZIPCODE": "98092", "DISTRICT": "AUBURN" }, "geometry": { "type": "Point", "coordinates": [ -122.162160285651439, 47.280782850964592 ] } },
{ "type": "Feature", "id": 278, "properties": { "CODE": "School - Elementary", "NAME": "Villa Academy School", "ADDRESS": "5001 NE 50th St", "ZIPCODE": "98105", "DISTRICT": "SEATTLE" }, "geometry": { "type": "Point", "coordinates": [ -122.27345397069044, 47.663725760489363 ] } },
{ "type": "Feature", "id": 279, "properties": { "CODE": "School - High", "NAME": "Auburn Riverside High School", "ADDRESS": "501 Oravetz Rd SE", "ZIPCODE": "98092", "DISTRICT": "AUBURN" }, "geometry": { "type": "Point", "coordinates": [ -122.222175997800036, 47.267764164876425 ] } },
{ "type": "Feature", "id": 280, "properties": { "CODE": "School - High", "NAME": "Northwest Yeshiva High School", "ADDRESS": "5017 90th Ave SE", "ZIPCODE": "98040", "DISTRICT": "MERCER ISLAND" }, "geometry": { "type": "Point", "coordinates": [ -122.220037716924253, 47.557787652784754 ] } },
{ "type": "Feature", "id": 281, "properties": { "CODE": "School - Junior High or Middle", "NAME": "Odle Middle School", "ADDRESS": "502 143rd Ave NE", "ZIPCODE": "98007", "DISTRICT": "BELLEVUE" }, "geometry": { "type": "Point", "coordinates": [ -122.149227529204794, 47.614794299901391 ] } },
{ "type": "Feature", "id": 282, "properties": { "CODE": "School - Other facility", "NAME": "Auburn Adminstrative Annex", "ADDRESS": "502 4th St NE", "ZIPCODE": "98002", "DISTRICT": "AUBURN" }, "geometry": { "type": "Point", "coordinates": [ -122.222677042749453, 47.310647014644871 ] } },
{ "type": "Feature", "id": 283, "properties": { "CODE": "School - Junior High or Middle", "NAME": "Hillside Student Community School", "ADDRESS": "5027 159th Pl SE", "ZIPCODE": "98006", "DISTRICT": "ISSAQUAH" }, "geometry": { "type": "Point", "coordinates": [ -122.1264256207415, 47.557004640105021 ] } },
{ "type": "Feature", "id": 284, "properties": { "CODE": "School - Elementary", "NAME": "Holy Family Catholic School", "ADDRESS": "505 17th St SE", "ZIPCODE": "98002", "DISTRICT": "AUBURN" }, "geometry": { "type": "Point", "coordinates": [ -122.223041775814906, 47.294018297601546 ] } },
{ "type": "Feature", "id": 285, "properties": { "CODE": "School - Elementary", "NAME": "Graham Hill Elementary School", "ADDRESS": "5149 S Graham St", "ZIPCODE": "98118", "DISTRICT": "SEATTLE" }, "geometry": { "type": "Point", "coordinates": [ -122.268549805245499, 47.545789879424461 ] } },
{ "type": "Feature", "id": 286, "properties": { "CODE": "School - College or University", "NAME": "Washington Academy of Languages", "ADDRESS": "521 Wall St", "ZIPCODE": "98121", "DISTRICT": "SEATTLE" }, "geometry": { "type": "Point", "coordinates": [ -122.356817783262386, 47.649761973524043 ] } },
{ "type": "Feature", "id": 287, "properties": { "CODE": "School - High", "NAME": "Puget Sound Adventist Academy", "ADDRESS": "5320 108th Ave NE", "ZIPCODE": "98033", "DISTRICT": "LAKE WASHINGTON" }, "geometry": { "type": "Point", "coordinates": [ -122.195493459976319, 47.656546726318275 ] } },
{ "type": "Feature", "id": 288, "properties": { "CODE": "School - Elementary", "NAME": "Island Park Elementary School", "ADDRESS": "5437 Island Crest Way", "ZIPCODE": "98040", "DISTRICT": "MERCER ISLAND" }, "geometry": { "type": "Point", "coordinates": [ -122.222704743585965, 47.553751856343709 ] } },
{ "type": "Feature", "id": 289, "properties": { "CODE": "School - Junior High or Middle", "NAME": "Enumclaw Middle School", "ADDRESS": "550 Semanski St S", "ZIPCODE": "98022", "DISTRICT": "ENUMCLAW" }, "geometry": { "type": "Point", "coordinates": [ -122.007960674096623, 47.187076061981607 ] } },
{ "type": "Feature", "id": 290, "properties": { "CODE": "School - Alternative", "NAME": "Grover Cleveland STEM High School", "ADDRESS": "5511 15th Ave S", "ZIPCODE": "98108", "DISTRICT": "SEATTLE" }, "geometry": { "type": "Point", "coordinates": [ -122.31390990800918, 47.5523015362919 ] } },
{ "type": "Feature", "id": 291, "properties": { "CODE": "School - College or University", "NAME": "Northwest University", "ADDRESS": "5520 108th Ave NE", "ZIPCODE": "98033", "DISTRICT": "LAKE WASHINGTON" }, "geometry": { "type": "Point", "coordinates": [ -122.195782235657944, 47.6575002005915 ] } },
{ "type": "Feature", "id": 292, "properties": { "CODE": "School - Elementary", "NAME": "Issaquah Valley Elementary School", "ADDRESS": "555 NW Holly St", "ZIPCODE": "98027", "DISTRICT": "ISSAQUAH" }, "geometry": { "type": "Point", "coordinates": [ -122.04537611957835, 47.536629313660477 ] } },
{ "type": "Feature", "id": 293, "properties": { "CODE": "School - Elementary", "NAME": "West Woodland Elementary School", "ADDRESS": "5601 4th Ave NW", "ZIPCODE": "98107", "DISTRICT": "SEATTLE" }, "geometry": { "type": "Point", "coordinates": [ -122.36223892748535, 47.670177740730523 ] } },
{ "type": "Feature", "id": 294, "properties": { "CODE": "School - Elementary", "NAME": "Evergreen Heights Elementary School", "ADDRESS": "5602 S 316th St", "ZIPCODE": "98001", "DISTRICT": "AUBURN" }, "geometry": { "type": "Point", "coordinates": [ -122.264083028105532, 47.31943164631592 ] } },
{ "type": "Feature", "id": 295, "properties": { "CODE": "School - Elementary", "NAME": "Meredith Hill Elementary School", "ADDRESS": "5830 S 300th St  ", "ZIPCODE": "98001", "DISTRICT": "FEDERAL WAY" }, "geometry": { "type": "Point", "coordinates": [ -122.26135948147973, 47.333844812592474 ] } },
{ "type": "Feature", "id": 296, "properties": { "CODE": "School - Elementary", "NAME": "Tukwila Elementary School", "ADDRESS": "5939 S 149th St", "ZIPCODE": "98168", "DISTRICT": "TUKWILA" }, "geometry": { "type": "Point", "coordinates": [ -122.259132135213164, 47.468914133582956 ] } },
{ "type": "Feature", "id": 297, "properties": { "CODE": "School - Alternative", "NAME": "Louisa Boren STEM K-8 School", "ADDRESS": "5950 Delridge Way SW", "ZIPCODE": "98106", "DISTRICT": "SEATTLE" }, "geometry": { "type": "Point", "coordinates": [ -122.362138345222007, 47.548622146645833 ] } },
{ "type": "Feature", "id": 298, "properties": { "CODE": "School - College or University", "NAME": "South Seattle College", "ADDRESS": "6000 16th Ave SW", "ZIPCODE": "98106", "DISTRICT": "SEATTLE" }, "geometry": { "type": "Point", "coordinates": [ -122.351090838088027, 47.548517950692812 ] } },
{ "type": "Feature", "id": 299, "properties": { "CODE": "School - Elementary", "NAME": "Benjamin Rush Elementary School", "ADDRESS": "6101 152nd Ave NE", "ZIPCODE": "98052", "DISTRICT": "LAKE WASHINGTON" }, "geometry": { "type": "Point", "coordinates": [ -122.138310180729306, 47.662113284341345 ] } },
{ "type": "Feature", "id": 300, "properties": { "CODE": "School - Elementary", "NAME": "Cedarhurst Elementary School", "ADDRESS": "611 S 132nd St", "ZIPCODE": "98168", "DISTRICT": "HIGHLINE" }, "geometry": { "type": "Point", "coordinates": [ -122.325165841967817, 47.484421306745311 ] } },
{ "type": "Feature", "id": 301, "properties": { "CODE": "School - Elementary", "NAME": "Adams Elementary School", "ADDRESS": "6110 28th Ave NW", "ZIPCODE": "98107", "DISTRICT": "SEATTLE" }, "geometry": { "type": "Point", "coordinates": [ -122.392119311483043, 47.673499232957113 ] } },
{ "type": "Feature", "id": 302, "properties": { "CODE": "School - High", "NAME": "New Start High School", "ADDRESS": "614 SW 120th St", "ZIPCODE": "98146", "DISTRICT": "HIGHLINE" }, "geometry": { "type": "Point", "coordinates": [ -122.341454382648891, 47.496424495944012 ] } },
{ "type": "Feature", "id": 303, "properties": { "CODE": "School - Other facility", "NAME": "Auburn Maint\/Ops\/Trans Center", "ADDRESS": "615 15th St SW", "ZIPCODE": "98001", "DISTRICT": "AUBURN" }, "geometry": { "type": "Point", "coordinates": [ -122.235302790220317, 47.296466322930108 ] } },
{ "type": "Feature", "id": 304, "properties": { "CODE": "School - Elementary", "NAME": "Giddens School", "ADDRESS": "620 20th Ave S", "ZIPCODE": "98144", "DISTRICT": "SEATTLE" }, "geometry": { "type": "Point", "coordinates": [ -122.306013618881195, 47.596920381326079 ] } },
{ "type": "Feature", "id": 305, "properties": { "CODE": "School - Junior High or Middle", "NAME": "Mt. Baker Middle School", "ADDRESS": "620 37th St SE", "ZIPCODE": "98002", "DISTRICT": "AUBURN" }, "geometry": { "type": "Point", "coordinates": [ -122.220143552895962, 47.274525984026234 ] } },
{ "type": "Feature", "id": 306, "properties": { "CODE": "School - Junior High or Middle", "NAME": "Mill Creek Middle School", "ADDRESS": "620 Central Ave N", "ZIPCODE": "98032", "DISTRICT": "KENT" }, "geometry": { "type": "Point", "coordinates": [ -122.22965822294546, 47.385692644716642 ] } },
{ "type": "Feature", "id": 307, "properties": { "CODE": "School - Elementary", "NAME": "Sand Point School", "ADDRESS": "6208 60th Ave NE", "ZIPCODE": "98115", "DISTRICT": "SEATTLE" }, "geometry": { "type": "Point", "coordinates": [ -122.262934305906228, 47.673652549481858 ] } },
{ "type": "Feature", "id": 308, "properties": { "CODE": "School - Elementary", "NAME": "Sand Point Elementary School", "ADDRESS": "6208 60th Ave NE", "ZIPCODE": "98115", "DISTRICT": "SEATTLE" }, "geometry": { "type": "Point", "coordinates": [ -122.262930247622833, 47.67365260040652 ] } },
{ "type": "Feature", "id": 309, "properties": { "CODE": "School - Elementary", "NAME": "Cedar Park Christian International School", "ADDRESS": "625 140th Ave NE", "ZIPCODE": "98005", "DISTRICT": "BELLEVUE" }, "geometry": { "type": "Point", "coordinates": [ -122.154148685553523, 47.616168557320442 ] } },
{ "type": "Feature", "id": 310, "properties": { "CODE": "School - Elementary", "NAME": "Mirror Lake Elementary School", "ADDRESS": "625 S 314th St", "ZIPCODE": "98003", "DISTRICT": "FEDERAL WAY" }, "geometry": { "type": "Point", "coordinates": [ -122.324894010748707, 47.319597874591118 ] } },
{ "type": "Feature", "id": 311, "properties": { "CODE": "School - Elementary", "NAME": "Campbell Hill Elementary School", "ADDRESS": "6418 S 124th St", "ZIPCODE": "98178", "DISTRICT": "RENTON" }, "geometry": { "type": "Point", "coordinates": [ -122.253278464043404, 47.492453199251933 ] } },
{ "type": "Feature", "id": 312, "properties": { "CODE": "School - College or University", "NAME": "Lake Washington Institute of Technology Redmond Campus", "ADDRESS": "6505 176th Ave NE", "ZIPCODE": "98052", "DISTRICT": "LAKE WASHINGTON" }, "geometry": { "type": "Point", "coordinates": [ -122.10623495858529, 47.664283130783993 ] } },
{ "type": "Feature", "id": 313, "properties": { "CODE": "School - High", "NAME": "Puget Sound Community School", "ADDRESS": "660 S Dearborn St", "ZIPCODE": "98134", "DISTRICT": "SEATTLE" }, "geometry": { "type": "Point", "coordinates": [ -122.324294551405828, 47.596301113747337 ] } },
{ "type": "Feature", "id": 314, "properties": { "CODE": "School - Elementary", "NAME": "Brighton School", "ADDRESS": "6725 45th Ave S", "ZIPCODE": "98118", "DISTRICT": "SEATTLE" }, "geometry": { "type": "Point", "coordinates": [ -122.276909750932305, 47.541743780547073 ] } },
{ "type": "Feature", "id": 315, "properties": { "CODE": "School - Elementary", "NAME": "Arrowhead Elementary School", "ADDRESS": "6725 NE Arrowhead Dr", "ZIPCODE": "98028", "DISTRICT": "NORTHSHORE" }, "geometry": { "type": "Point", "coordinates": [ -122.251689955491671, 47.737058007186171 ] } },
{ "type": "Feature", "id": 316, "properties": { "CODE": "School - Elementary", "NAME": "West Seattle Elementary School", "ADDRESS": "6760 34th Ave SW", "ZIPCODE": "98126", "DISTRICT": "SEATTLE" }, "geometry": { "type": "Point", "coordinates": [ -122.373490420064712, 47.541764586026829 ] } },
{ "type": "Feature", "id": 317, "properties": { "CODE": "School - College or University", "NAME": "South Seattle College-Georgetown Campus", "ADDRESS": "6800 E Marginal Way S", "ZIPCODE": "98108", "DISTRICT": "SEATTLE" }, "geometry": { "type": "Point", "coordinates": [ -122.324879704932798, 47.541606869432151 ] } },
{ "type": "Feature", "id": 318, "properties": { "CODE": "School - Junior High or Middle", "NAME": "Risdon Middle School", "ADDRESS": "6928 116th Ave SE", "ZIPCODE": "98056", "DISTRICT": "RENTON" }, "geometry": { "type": "Point", "coordinates": [ -122.185188461489204, 47.540390467920432 ] } },
{ "type": "Feature", "id": 319, "properties": { "CODE": "School - Elementary", "NAME": "St. Joseph School", "ADDRESS": "700 18th Ave E", "ZIPCODE": "98112", "DISTRICT": "SEATTLE" }, "geometry": { "type": "Point", "coordinates": [ -122.308278219887143, 47.625479063190838 ] } },
{ "type": "Feature", "id": 320, "properties": { "CODE": "School - High", "NAME": "Issaquah High School", "ADDRESS": "700 2nd Ave SE", "ZIPCODE": "98027", "DISTRICT": "ISSAQUAH" }, "geometry": { "type": "Point", "coordinates": [ -122.02871192764438, 47.522364659760747 ] } },
{ "type": "Feature", "id": 321, "properties": { "CODE": "School - Elementary", "NAME": "View Ridge Elementary School", "ADDRESS": "7047 50th Ave NE", "ZIPCODE": "98115", "DISTRICT": "SEATTLE" }, "geometry": { "type": "Point", "coordinates": [ -122.276180207187721, 47.680639352752557 ] } },
{ "type": "Feature", "id": 322, "properties": { "CODE": "School - College or University", "NAME": "Cornish College Kerry Hall", "ADDRESS": "710 E Roy St", "ZIPCODE": "98102", "DISTRICT": "SEATTLE" }, "geometry": { "type": "Point", "coordinates": [ -122.323033077207697, 47.625308841946477 ] } },
{ "type": "Feature", "id": 323, "properties": { "CODE": "School - Elementary", "NAME": "Concord International Elementary School", "ADDRESS": "723 S Concord St", "ZIPCODE": "98108", "DISTRICT": "SEATTLE" }, "geometry": { "type": "Point", "coordinates": [ -122.324688558539705, 47.523610846425179 ] } },
{ "type": "Feature", "id": 324, "properties": { "CODE": "School - High", "NAME": "Holy Names Academy", "ADDRESS": "728 21st Ave E", "ZIPCODE": "98112", "DISTRICT": "SEATTLE" }, "geometry": { "type": "Point", "coordinates": [ -122.304294136764469, 47.626443703491056 ] } },
{ "type": "Feature", "id": 325, "properties": { "CODE": "School - Elementary", "NAME": "Holy Family Parish School K-8", "ADDRESS": "7300 120th Ave NE", "ZIPCODE": "98033", "DISTRICT": "LAKE WASHINGTON" }, "geometry": { "type": "Point", "coordinates": [ -122.180674206457056, 47.670232371353791 ] } },
{ "type": "Feature", "id": 326, "properties": { "CODE": "School - Elementary", "NAME": "Northwest Montessori - West Seattle", "ADDRESS": "7344 35th Ave SW", "ZIPCODE": "98126", "DISTRICT": "SEATTLE" }, "geometry": { "type": "Point", "coordinates": [ -122.376216413974859, 47.536043351763077 ] } },
{ "type": "Feature", "id": 327, "properties": { "CODE": "School - Elementary", "NAME": "Decatur Elementary School", "ADDRESS": "7711 43rd Ave NE", "ZIPCODE": "98115", "DISTRICT": "SEATTLE" }, "geometry": { "type": "Point", "coordinates": [ -122.282822350218723, 47.685572854997005 ] } },
{ "type": "Feature", "id": 328, "properties": { "CODE": "School - High", "NAME": "Waldorf High School Campus", "ADDRESS": "7777 62nd Ave NE", "ZIPCODE": "98115", "DISTRICT": "SEATTLE" }, "geometry": { "type": "Point", "coordinates": [ -122.264935499444988, 47.687792373974496 ] } },
{ "type": "Feature", "id": 329, "properties": { "CODE": "School - Elementary", "NAME": "Bellevue Christian Three Points School", "ADDRESS": "7800 NE 28th St  ", "ZIPCODE": "98039", "DISTRICT": "BELLEVUE" }, "geometry": { "type": "Point", "coordinates": [ -122.235199256651754, 47.63605147785951 ] } },
{ "type": "Feature", "id": 330, "properties": { "CODE": "School - Alternative", "NAME": "Secondary Learning Center", "ADDRESS": "7800 S 132nd St", "ZIPCODE": "98178", "DISTRICT": "RENTON" }, "geometry": { "type": "Point", "coordinates": [ -122.236419474874239, 47.485495354610045 ] } },
{ "type": "Feature", "id": 331, "properties": { "CODE": "School - Elementary", "NAME": "Daniel Bagley Elementary School", "ADDRESS": "7821 Stone Ave N", "ZIPCODE": "98103", "DISTRICT": "SEATTLE" }, "geometry": { "type": "Point", "coordinates": [ -122.342444800466851, 47.686257597677049 ] } },
{ "type": "Feature", "id": 332, "properties": { "CODE": "School - High", "NAME": "Auburn High School", "ADDRESS": "800 4th St NE", "ZIPCODE": "98002", "DISTRICT": "AUBURN" }, "geometry": { "type": "Point", "coordinates": [ -122.219383731274107, 47.31005402651919 ] } },
{ "type": "Feature", "id": 333, "properties": { "CODE": "School - Elementary", "NAME": "Honey Dew Elementary School", "ADDRESS": "800 Union Ave NE", "ZIPCODE": "98059", "DISTRICT": "RENTON" }, "geometry": { "type": "Point", "coordinates": [ -122.163251465120254, 47.496353906577149 ] } },
{ "type": "Feature", "id": 334, "properties": { "CODE": "School - High", "NAME": "University Prep Academy", "ADDRESS": "8000 25th Ave NE", "ZIPCODE": "98115", "DISTRICT": "SEATTLE" }, "geometry": { "type": "Point", "coordinates": [ -122.300391977906258, 47.686982233715689 ] } },
{ "type": "Feature", "id": 335, "properties": { "CODE": "School - Elementary", "NAME": "Medina Elementary School", "ADDRESS": "8001 NE 8th St", "ZIPCODE": "98039", "DISTRICT": "BELLEVUE" }, "geometry": { "type": "Point", "coordinates": [ -122.233929648341999, 47.616925603162791 ] } },
{ "type": "Feature", "id": 336, "properties": { "CODE": "School - Other facility", "NAME": "Administration\/Transportation", "ADDRESS": "8001 SE Cedar St", "ZIPCODE": "98065", "DISTRICT": "SNOQUALMIE VALLEY" }, "geometry": { "type": "Point", "coordinates": [ -121.828838713787576, 47.528851446980298 ] } },
{ "type": "Feature", "id": 337, "properties": { "CODE": "School - High", "NAME": "O Dea High School", "ADDRESS": "802 Terry Ave", "ZIPCODE": "98104", "DISTRICT": "SEATTLE" }, "geometry": { "type": "Point", "coordinates": [ -122.324813320970762, 47.607755894934357 ] } },
{ "type": "Feature", "id": 338, "properties": { "CODE": "School - Junior High or Middle", "NAME": "Finn Hill Middle School", "ADDRESS": "8040 NE 132nd St", "ZIPCODE": "98034", "DISTRICT": "LAKE WASHINGTON" }, "geometry": { "type": "Point", "coordinates": [ -122.231249973387321, 47.720041664031932 ] } },
{ "type": "Feature", "id": 339, "properties": { "CODE": "School - Alternative", "NAME": "Environmental and Adventure School", "ADDRESS": "8040 NE 132nd St ", "ZIPCODE": "98034", "DISTRICT": "LAKE WASHINGTON" }, "geometry": { "type": "Point", "coordinates": [ -122.231249973387321, 47.720041664031932 ] } },
{ "type": "Feature", "id": 340, "properties": { "CODE": "School - Other facility", "NAME": "Transportation Center", "ADDRESS": "805 2nd Ave SE", "ZIPCODE": "98027", "DISTRICT": "ISSAQUAH" }, "geometry": { "type": "Point", "coordinates": [ -122.030662469222634, 47.521463992729821 ] } },
{ "type": "Feature", "id": 341, "properties": { "CODE": "School - Junior High or Middle", "NAME": "Lake Washington Girls Middle School", "ADDRESS": "810 18th Ave", "ZIPCODE": "98122", "DISTRICT": "SEATTLE" }, "geometry": { "type": "Point", "coordinates": [ -122.308533016694881, 47.609577685329263 ] } },
{ "type": "Feature", "id": 342, "properties": { "CODE": "School - Elementary", "NAME": "Rose Hill Elementary School", "ADDRESS": "8110 128th Ave NE", "ZIPCODE": "98033", "DISTRICT": "LAKE WASHINGTON" }, "geometry": { "type": "Point", "coordinates": [ -122.167213736766897, 47.676096656987852 ] } },
{ "type": "Feature", "id": 343, "properties": { "CODE": "School - High", "NAME": "Bishop Blanchet High School", "ADDRESS": "8200 Wallingford Ave N", "ZIPCODE": "98103", "DISTRICT": "SEATTLE" }, "geometry": { "type": "Point", "coordinates": [ -122.335470899123266, 47.689714180450437 ] } },
{ "type": "Feature", "id": 344, "properties": { "CODE": "School - Elementary", "NAME": "Bryn Mawr Elementary School", "ADDRESS": "8212 S 118th St", "ZIPCODE": "98178", "DISTRICT": "RENTON" }, "geometry": { "type": "Point", "coordinates": [ -122.229316336266578, 47.498036829339036 ] } },
{ "type": "Feature", "id": 345, "properties": { "CODE": "School - Elementary", "NAME": "Henry David Thoreau Elementary School", "ADDRESS": "8224 NE 138th St", "ZIPCODE": "98034", "DISTRICT": "LAKE WASHINGTON" }, "geometry": { "type": "Point", "coordinates": [ -122.230924886498158, 47.72472063907243 ] } },
{ "type": "Feature", "id": 346, "properties": { "CODE": "School - Alternative", "NAME": "Arts & Academics Academy", "ADDRESS": "830 SW 116th St", "ZIPCODE": "98146", "DISTRICT": "HIGHLINE" }, "geometry": { "type": "Point", "coordinates": [ -122.345432283416173, 47.500355744059163 ] } },
{ "type": "Feature", "id": 347, "properties": { "CODE": "School - Elementary", "NAME": "St. Thomas School", "ADDRESS": "8300 NE 12th St", "ZIPCODE": "98039", "DISTRICT": "BELLEVUE" }, "geometry": { "type": "Point", "coordinates": [ -122.229820544680166, 47.621415301165847 ] } },
{ "type": "Feature", "id": 348, "properties": { "CODE": "School - Elementary", "NAME": "Newcastle Elementary School", "ADDRESS": "8400 136th Ave SE", "ZIPCODE": "98059", "DISTRICT": "ISSAQUAH" }, "geometry": { "type": "Point", "coordinates": [ -122.160063293250317, 47.525929681854727 ] } },
{ "type": "Feature", "id": 349, "properties": { "CODE": "School - Elementary", "NAME": "Fairview Christian School", "ADDRESS": "844 NE 78th St", "ZIPCODE": "98115", "DISTRICT": "SEATTLE" }, "geometry": { "type": "Point", "coordinates": [ -122.318493665246152, 47.685659184927111 ] } },
{ "type": "Feature", "id": 350, "properties": { "CODE": "School - Elementary", "NAME": "St. Catherine of Siena Parish School", "ADDRESS": "8524 8th Ave NE", "ZIPCODE": "98115", "DISTRICT": "SEATTLE" }, "geometry": { "type": "Point", "coordinates": [ -122.319914639278423, 47.690617375562915 ] } },
{ "type": "Feature", "id": 351, "properties": { "CODE": "School - High", "NAME": "South Lake High School", "ADDRESS": "8601 Rainier Ave S", "ZIPCODE": "98118", "DISTRICT": "SEATTLE" }, "geometry": { "type": "Point", "coordinates": [ -122.270910513098741, 47.525672369179453 ] } },
{ "type": "Feature", "id": 352, "properties": { "CODE": "School - High", "NAME": "Rainier Beach High School", "ADDRESS": "8815 Seward Park Ave S", "ZIPCODE": "98118", "DISTRICT": "SEATTLE" }, "geometry": { "type": "Point", "coordinates": [ -122.265858930919919, 47.524071807061659 ] } },
{ "type": "Feature", "id": 353, "properties": { "CODE": "School - Elementary", "NAME": "St. Therese Catholic Academy", "ADDRESS": "900 35th Ave", "ZIPCODE": "98122", "DISTRICT": "SEATTLE" }, "geometry": { "type": "Point", "coordinates": [ -122.288004194126017, 47.611182809716958 ] } },
{ "type": "Feature", "id": 354, "properties": { "CODE": "School - Elementary", "NAME": "North Beach Elementary School", "ADDRESS": "9018 24th Ave NW", "ZIPCODE": "98117", "DISTRICT": "SEATTLE" }, "geometry": { "type": "Point", "coordinates": [ -122.38709888315924, 47.694870737567499 ] } },
{ "type": "Feature", "id": 355, "properties": { "CODE": "School - High", "NAME": "Mercer Island High School", "ADDRESS": "9100 SE 42nd St", "ZIPCODE": "98040", "DISTRICT": "MERCER ISLAND" }, "geometry": { "type": "Point", "coordinates": [ -122.217233495183052, 47.571616500223769 ] } },
{ "type": "Feature", "id": 356, "properties": { "CODE": "School - Elementary", "NAME": "Spruce Street School", "ADDRESS": "914 Virginia St", "ZIPCODE": "98101", "DISTRICT": "SEATTLE" }, "geometry": { "type": "Point", "coordinates": [ -122.335330656906137, 47.616874576003781 ] } },
{ "type": "Feature", "id": 357, "properties": { "CODE": "School - Junior High or Middle", "NAME": "Whitman Middle School", "ADDRESS": "9201 15th Ave NW", "ZIPCODE": "98117", "DISTRICT": "SEATTLE" }, "geometry": { "type": "Point", "coordinates": [ -122.37760222361463, 47.696751968222301 ] } },
{ "type": "Feature", "id": 358, "properties": { "CODE": "School - Elementary", "NAME": "Green River Montessori School", "ADDRESS": "922 12th St NE", "ZIPCODE": "98002", "DISTRICT": "AUBURN" }, "geometry": { "type": "Point", "coordinates": [ -122.217491015773874, 47.318363264578409 ] } },
{ "type": "Feature", "id": 359, "properties": { "CODE": "School - Elementary", "NAME": "Chautauqua Elementary School", "ADDRESS": "9309 SW Cemetery Rd", "ZIPCODE": "98070", "DISTRICT": "VASHON ISLAND" }, "geometry": { "type": "Point", "coordinates": [ -122.452254750893289, 47.427602124965432 ] } },
{ "type": "Feature", "id": 360, "properties": { "CODE": "School - Elementary", "NAME": "Roxhill Elementary School", "ADDRESS": "9430 30th Ave SW", "ZIPCODE": "98126", "DISTRICT": "SEATTLE" }, "geometry": { "type": "Point", "coordinates": [ -122.370513987414071, 47.517743496925611 ] } },
{ "type": "Feature", "id": 361, "properties": { "CODE": "School - Elementary", "NAME": "Sacajawea Elementary School", "ADDRESS": "9501 20th Ave NE", "ZIPCODE": "98115", "DISTRICT": "SEATTLE" }, "geometry": { "type": "Point", "coordinates": [ -122.307624416137614, 47.698438135919474 ] } },
{ "type": "Feature", "id": 362, "properties": { "CODE": "School - High", "NAME": "Vashon Island High School", "ADDRESS": "9600 SW 204th St", "ZIPCODE": "98070", "DISTRICT": "VASHON ISLAND" }, "geometry": { "type": "Point", "coordinates": [ -122.456868054225936, 47.42314332367863 ] } },
{ "type": "Feature", "id": 363, "properties": { "CODE": "School - Elementary", "NAME": "Clyde Hill Elementary School", "ADDRESS": "9601 NE 24th St", "ZIPCODE": "98004", "DISTRICT": "BELLEVUE" }, "geometry": { "type": "Point", "coordinates": [ -122.21176292609411, 47.631281538803719 ] } },
{ "type": "Feature", "id": 364, "properties": { "CODE": "School - Elementary", "NAME": "Juanita Elementary School", "ADDRESS": "9635 NE 132nd St", "ZIPCODE": "98034", "DISTRICT": "LAKE WASHINGTON" }, "geometry": { "type": "Point", "coordinates": [ -122.209533726463135, 47.717969705818881 ] } },
{ "type": "Feature", "id": 365, "properties": { "CODE": "School - Elementary", "NAME": "Emerson Elementary School", "ADDRESS": "9709 60th Ave S", "ZIPCODE": "98118", "DISTRICT": "SEATTLE" }, "geometry": { "type": "Point", "coordinates": [ -122.258635224928412, 47.514820805356806 ] } },
{ "type": "Feature", "id": 366, "properties": { "CODE": "School - Elementary", "NAME": "East Hill Elementary School", "ADDRESS": "9825 S 240th St", "ZIPCODE": "98031", "DISTRICT": "KENT" }, "geometry": { "type": "Point", "coordinates": [ -122.208249489910642, 47.386036722387772 ] } },
{ "type": "Feature", "id": 367, "properties": { "CODE": "School - Elementary", "NAME": "Sunrise Elementary School-Northshore", "ADDRESS": "14075 172nd Ave NE", "ZIPCODE": "98052", "DISTRICT": "NORTHSHORE" }, "geometry": { "type": "Point", "coordinates": [ -122.108506696178495, 47.727438351152344 ] } },
{ "type": "Feature", "id": 368, "properties": { "CODE": "School - Elementary", "NAME": "Sherwood Forest Elementary School-Bellevue", "ADDRESS": "16411 NE 24th St", "ZIPCODE": "98008", "DISTRICT": "BELLEVUE" }, "geometry": { "type": "Point", "coordinates": [ -122.12081988498376, 47.630588879661438 ] } },
{ "type": "Feature", "id": 369, "properties": { "CODE": "School - College or University", "NAME": "Seattle Central College", "ADDRESS": "1701 Broadway", "ZIPCODE": "98122", "DISTRICT": "SEATTLE" }, "geometry": { "type": "Point", "coordinates": [ -122.321355881867092, 47.616898058241716 ] } },
{ "type": "Feature", "id": 370, "properties": { "CODE": "School - Other facility", "NAME": "Transportation-Highline", "ADDRESS": "17910 8th Ave S", "ZIPCODE": "98148", "DISTRICT": "HIGHLINE" }, "geometry": { "type": "Point", "coordinates": [ -122.32272705827765, 47.442785853876458 ] } },
{ "type": "Feature", "id": 371, "properties": { "CODE": "School - Elementary", "NAME": "Bear Creek Elementary School", "ADDRESS": "18101 Avondale Rd NE", "ZIPCODE": "98077", "DISTRICT": "NORTHSHORE" }, "geometry": { "type": "Point", "coordinates": [ -122.080326942152098, 47.759004115376101 ] } },
{ "type": "Feature", "id": 372, "properties": { "CODE": "School - Junior High or Middle", "NAME": "Chinook Middle School-Highline", "ADDRESS": "18650 42nd Ave S", "ZIPCODE": "98188", "DISTRICT": "HIGHLINE" }, "geometry": { "type": "Point", "coordinates": [ -122.280727094330317, 47.435139318171046 ] } },
{ "type": "Feature", "id": 373, "properties": { "CODE": "School - College or University", "NAME": "Seattle University Eastside Center", "ADDRESS": "200 112th Ave NE", "ZIPCODE": "98004", "DISTRICT": "BELLEVUE" }, "geometry": { "type": "Point", "coordinates": [ -122.190406071613253, 47.612119326465624 ] } },
{ "type": "Feature", "id": 374, "properties": { "CODE": "School - Elementary", "NAME": "Sunrise Elementary School-Kent", "ADDRESS": "22300 132nd Ave SE", "ZIPCODE": "98042", "DISTRICT": "KENT" }, "geometry": { "type": "Point", "coordinates": [ -122.164537166772746, 47.402650908237462 ] } },
{ "type": "Feature", "id": 375, "properties": { "CODE": "School - High", "NAME": "Eastside Catholic High School", "ADDRESS": "232 228th Ave SE", "ZIPCODE": "98074", "DISTRICT": "LAKE WASHINGTON" }, "geometry": { "type": "Point", "coordinates": [ -122.025872458366536, 47.607374486572567 ] } },
{ "type": "Feature", "id": 376, "properties": { "CODE": "School - Junior High or Middle", "NAME": "Pacific Cascade Middle School", "ADDRESS": "24635 SE Issaquah Fall City Rd", "ZIPCODE": "98029", "DISTRICT": "ISSAQUAH" }, "geometry": { "type": "Point", "coordinates": [ -122.010647759259726, 47.559491005361544 ] } },
{ "type": "Feature", "id": 377, "properties": { "CODE": "School - Junior High or Middle", "NAME": "Summit Trail Middle School", "ADDRESS": "25600 SE Summit Landsburg Rd", "ZIPCODE": "98051", "DISTRICT": "TAHOMA" }, "geometry": { "type": "Point", "coordinates": [ -122.000248054745768, 47.372815594688142 ] } },
{ "type": "Feature", "id": 378, "properties": { "CODE": "School - Elementary", "NAME": "Rock Creek Elementary School", "ADDRESS": "25700 Maple Valley Black Diamond Rd SE", "ZIPCODE": "98038", "DISTRICT": "TAHOMA" }, "geometry": { "type": "Point", "coordinates": [ -122.021404617835231, 47.371896512994539 ] } },
{ "type": "Feature", "id": 379, "properties": { "CODE": "School - Other facility", "NAME": "Administration Center-Tahoma", "ADDRESS": "25720 Maple Valley Black Diamond Rd SE", "ZIPCODE": "98038", "DISTRICT": "TAHOMA" }, "geometry": { "type": "Point", "coordinates": [ -122.022192933034987, 47.371065700488828 ] } },
{ "type": "Feature", "id": 380, "properties": { "CODE": "School - Elementary", "NAME": "Endeavor Elementary School", "ADDRESS": "26205 SE Issaquah Fall City Rd", "ZIPCODE": "98029", "DISTRICT": "ISSAQUAH" }, "geometry": { "type": "Point", "coordinates": [ -121.988263631077771, 47.570419120877901 ] } },
{ "type": "Feature", "id": 381, "properties": { "CODE": "School - Alternative", "NAME": "Cascade Parent Partnership Program", "ADDRESS": "2919 1st Ave W", "ZIPCODE": "98119", "DISTRICT": "SEATTLE" }, "geometry": { "type": "Point", "coordinates": [ -122.358617627121845, 47.64627682884592 ] } },
{ "type": "Feature", "id": 382, "properties": { "CODE": "School - High", "NAME": "Franklin High School", "ADDRESS": "3013 S Mount Baker Blvd", "ZIPCODE": "98144", "DISTRICT": "SEATTLE" }, "geometry": { "type": "Point", "coordinates": [ -122.293644520244271, 47.575889546707927 ] } },
{ "type": "Feature", "id": 383, "properties": { "CODE": "School - Elementary", "NAME": "Rainier View Elementary School-Federal Way", "ADDRESS": "3015 S 368th St", "ZIPCODE": "98003", "DISTRICT": "FEDERAL WAY" }, "geometry": { "type": "Point", "coordinates": [ -122.294446768788333, 47.271094966599414 ] } },
{ "type": "Feature", "id": 384, "properties": { "CODE": "School - Other facility", "NAME": "Administrative Building-Federal Way", "ADDRESS": "31405 18th Ave S", "ZIPCODE": "98003", "DISTRICT": "FEDERAL WAY" }, "geometry": { "type": "Point", "coordinates": [ -122.311150791774011, 47.320269009008634 ] } },
{ "type": "Feature", "id": 385, "properties": { "CODE": "School - Elementary", "NAME": "Sunny Hills Elementary School", "ADDRESS": "3200 Issaquah Pine Lake Rd SE", "ZIPCODE": "98075", "DISTRICT": "ISSAQUAH" }, "geometry": { "type": "Point", "coordinates": [ -122.028798863765488, 47.580336838739406 ] } },
{ "type": "Feature", "id": 386, "properties": { "CODE": "School - Junior High or Middle", "NAME": "Chief Kanim Middle School", "ADDRESS": "32627 SE Redmond Fall City Rd  ", "ZIPCODE": "98024", "DISTRICT": "SNOQUALMIE VALLEY" }, "geometry": { "type": "Point", "coordinates": [ -121.904807326973028, 47.569528048132753 ] } },
{ "type": "Feature", "id": 387, "properties": { "CODE": "School - Elementary", "NAME": "Our Lady of Fatima Parish School", "ADDRESS": "3301 W Dravus St", "ZIPCODE": "98199", "DISTRICT": "SEATTLE" }, "geometry": { "type": "Point", "coordinates": [ -122.399135418245621, 47.648238029733939 ] } },
{ "type": "Feature", "id": 388, "properties": { "CODE": "School - Elementary", "NAME": "Sherwood Forest Elementary School-Federal Way", "ADDRESS": "34600 12th Ave SW", "ZIPCODE": "98023", "DISTRICT": "FEDERAL WAY" }, "geometry": { "type": "Point", "coordinates": [ -122.349848676287223, 47.292007940469141 ] } },
{ "type": "Feature", "id": 389, "properties": { "CODE": "School - Junior High or Middle", "NAME": "Alexander Hamilton International Middle School", "ADDRESS": "1610 N 41st St", "ZIPCODE": "98103", "DISTRICT": "SEATTLE" }, "geometry": { "type": "Point", "coordinates": [ -122.338025077723131, 47.657456403779129 ] } },
{ "type": "Feature", "id": 390, "properties": { "CODE": "School - High", "NAME": "Liberty High School", "ADDRESS": "16655 SE 136th St", "ZIPCODE": "98059", "DISTRICT": "ISSAQUAH" }, "geometry": { "type": "Point", "coordinates": [ -122.117752191975711, 47.480072782274014 ] } },
{ "type": "Feature", "id": 391, "properties": { "CODE": "School - Elementary", "NAME": "Meridian Park Elementary School", "ADDRESS": "17077 Meridian Ave N", "ZIPCODE": "98133", "DISTRICT": "SHORELINE" }, "geometry": { "type": "Point", "coordinates": [ -122.336052087952623, 47.755018226347246 ] } },
{ "type": "Feature", "id": 392, "properties": { "CODE": "School - Elementary", "NAME": "Brookside Elementary School", "ADDRESS": "17447 37th Ave NE", "ZIPCODE": "98155", "DISTRICT": "SHORELINE" }, "geometry": { "type": "Point", "coordinates": [ -122.289743845428603, 47.754606898980377 ] } },
{ "type": "Feature", "id": 393, "properties": { "CODE": "School - Elementary", "NAME": "Captain Stephen E. Sanislo Elementary School", "ADDRESS": "1812 SW Myrtle St", "ZIPCODE": "98106", "DISTRICT": "SEATTLE" }, "geometry": { "type": "Point", "coordinates": [ -122.358658714062315, 47.539609231808377 ] } },
{ "type": "Feature", "id": 394, "properties": { "CODE": "School - Alternative", "NAME": "Cedar Park Elementary School", "ADDRESS": "13224 37th Ave NE", "ZIPCODE": "98125", "DISTRICT": "SEATTLE" }, "geometry": { "type": "Point", "coordinates": [ -122.287530090314675, 47.725814345084274 ] } },
{ "type": "Feature", "id": 395, "properties": { "CODE": "School - Elementary", "NAME": "Lake Hills Elementary School", "ADDRESS": "14310 SE 12th St", "ZIPCODE": "98007", "DISTRICT": "BELLEVUE" }, "geometry": { "type": "Point", "coordinates": [ -122.149016406257189, 47.60115309329499 ] } },
{ "type": "Feature", "id": 396, "properties": { "CODE": "School - Junior High or Middle", "NAME": "Maywood Middle School", "ADDRESS": "14490 168th Ave SE", "ZIPCODE": "98059", "DISTRICT": "ISSAQUAH" }, "geometry": { "type": "Point", "coordinates": [ -122.11491915293918, 47.471435010830497 ] } },
{ "type": "Feature", "id": 397, "properties": { "CODE": "School - High", "NAME": "Lindbergh High School", "ADDRESS": "16426 128th Ave SE", "ZIPCODE": "98058", "DISTRICT": "RENTON" }, "geometry": { "type": "Point", "coordinates": [ -122.166162529765415, 47.454804642300083 ] } },
{ "type": "Feature", "id": 398, "properties": { "CODE": "School - Other facility", "NAME": "Highline School Facility Services", "ADDRESS": "17810 8th Ave S", "ZIPCODE": "98148", "DISTRICT": "HIGHLINE" }, "geometry": { "type": "Point", "coordinates": [ -122.323515576653222, 47.443365026986655 ] } },
{ "type": "Feature", "id": 399, "properties": { "CODE": "School - College or University", "NAME": "University of Washington-Bothell", "ADDRESS": "18115 Campus Way NE", "ZIPCODE": "98011", "DISTRICT": "NORTHSHORE" }, "geometry": { "type": "Point", "coordinates": [ -122.19066442183275, 47.758995376662682 ] } },
{ "type": "Feature", "id": 400, "properties": { "CODE": "School - Elementary", "NAME": "St. Philomena Catholic School", "ADDRESS": "1815 S 220th St", "ZIPCODE": "98198", "DISTRICT": "HIGHLINE" }, "geometry": { "type": "Point", "coordinates": [ -122.310853570653123, 47.404418904498677 ] } },
{ "type": "Feature", "id": 401, "properties": { "CODE": "School - Elementary", "NAME": "Lake Forest Park Elementary School", "ADDRESS": "18500 37th Ave NE", "ZIPCODE": "98155", "DISTRICT": "SHORELINE" }, "geometry": { "type": "Point", "coordinates": [ -122.287817654732876, 47.76306025776698 ] } },
{ "type": "Feature", "id": 402, "properties": { "CODE": "School - Elementary", "NAME": "Laura Ingalls Wilder Elementary School", "ADDRESS": "22130 NE 133rd St", "ZIPCODE": "98077", "DISTRICT": "LAKE WASHINGTON" }, "geometry": { "type": "Point", "coordinates": [ -122.041786879528743, 47.719514391300372 ] } },
{ "type": "Feature", "id": 403, "properties": { "CODE": "School - Elementary", "NAME": "Bertschi School", "ADDRESS": "2227 10th Ave E", "ZIPCODE": "98102", "DISTRICT": "SEATTLE" }, "geometry": { "type": "Point", "coordinates": [ -122.320346917786523, 47.639317199122367 ] } },
{ "type": "Feature", "id": 404, "properties": { "CODE": "School - High", "NAME": "Enumclaw High School", "ADDRESS": "226 Semanski St S", "ZIPCODE": "98022", "DISTRICT": "ENUMCLAW" }, "geometry": { "type": "Point", "coordinates": [ -122.00651263039498, 47.191203762156327 ] } },
{ "type": "Feature", "id": 405, "properties": { "CODE": "School - High", "NAME": "Seattle Preparatory School", "ADDRESS": "2400 11th Ave E", "ZIPCODE": "98102", "DISTRICT": "SEATTLE" }, "geometry": { "type": "Point", "coordinates": [ -122.3175069997218, 47.641024132658487 ] } },
{ "type": "Feature", "id": 406, "properties": { "CODE": "School - Elementary", "NAME": "Challenger Elementary School", "ADDRESS": "25200 SE Klahanie blvd", "ZIPCODE": "98029", "DISTRICT": "ISSAQUAH" }, "geometry": { "type": "Point", "coordinates": [ -122.003973747321496, 47.577392650691074 ] } },
{ "type": "Feature", "id": 407, "properties": { "CODE": "School - Elementary", "NAME": "Scenic Hill Elementary School", "ADDRESS": "26025 Woodland Way S", "ZIPCODE": "98030", "DISTRICT": "KENT" }, "geometry": { "type": "Point", "coordinates": [ -122.211375033309565, 47.368148846070198 ] } },
{ "type": "Feature", "id": 408, "properties": { "CODE": "School - Elementary", "NAME": "Sawyer Woods Elementary School", "ADDRESS": "31135 228th Ave SE", "ZIPCODE": "98010", "DISTRICT": "KENT" }, "geometry": { "type": "Point", "coordinates": [ -122.040181249946343, 47.323510636427741 ] } },
{ "type": "Feature", "id": 409, "properties": { "CODE": "School - Elementary", "NAME": "Southwood Elementary School", "ADDRESS": "3240 McDougall Ave", "ZIPCODE": "98022", "DISTRICT": "ENUMCLAW" }, "geometry": { "type": "Point", "coordinates": [ -122.011852598766751, 47.187380956766255 ] } },
{ "type": "Feature", "id": 410, "properties": { "CODE": "School - Other facility", "NAME": "Echo Glen Childrens Center", "ADDRESS": "33010 SE 99th St", "ZIPCODE": "98065", "DISTRICT": "ISSAQUAH" }, "geometry": { "type": "Point", "coordinates": [ -121.90141713410631, 47.518006710916403 ] } },
{ "type": "Feature", "id": 411, "properties": { "CODE": "School - College or University", "NAME": "Seattle Pacific University", "ADDRESS": "3307 3rd Ave W", "ZIPCODE": "98119", "DISTRICT": "SEATTLE" }, "geometry": { "type": "Point", "coordinates": [ -122.362653222907397, 47.649628912444228 ] } },
{ "type": "Feature", "id": 412, "properties": { "CODE": "School - Elementary", "NAME": "Timber Ridge Elementary School", "ADDRESS": "34412 SE Swenson Dr", "ZIPCODE": "98065", "DISTRICT": "SNOQUALMIE VALLEY" }, "geometry": { "type": "Point", "coordinates": [ -121.88150180509389, 47.525112389842185 ] } },
{ "type": "Feature", "id": 413, "properties": { "CODE": "School - Elementary", "NAME": "Montessori Academy at Spring Valley", "ADDRESS": "36605 Pacific Hwy S", "ZIPCODE": "98003", "DISTRICT": "FEDERAL WAY" }, "geometry": { "type": "Point", "coordinates": [ -122.329036296625759, 47.273933006242252 ] } },
{ "type": "Feature", "id": 414, "properties": { "CODE": "School - Other facility", "NAME": "Stadium\/Athletic Office", "ADDRESS": "401 5th Ave N", "ZIPCODE": "98109", "DISTRICT": "SEATTLE" }, "geometry": { "type": "Point", "coordinates": [ -122.349881616183239, 47.622870338662374 ] } },
{ "type": "Feature", "id": 415, "properties": { "CODE": "School - Alternative", "NAME": "Crest Learning Center", "ADDRESS": "4150 86th Ave SE", "ZIPCODE": "98040", "DISTRICT": "MERCER ISLAND" }, "geometry": { "type": "Point", "coordinates": [ -122.223116108416065, 47.571599590299151 ] } },
{ "type": "Feature", "id": 416, "properties": { "CODE": "School - Elementary", "NAME": "Sunset Elementary School", "ADDRESS": "4229 W Lake Sammamish Pkwy SE", "ZIPCODE": "98008", "DISTRICT": "ISSAQUAH" }, "geometry": { "type": "Point", "coordinates": [ -122.101632209679906, 47.568794314114811 ] } },
{ "type": "Feature", "id": 417, "properties": { "CODE": "School - Alternative", "NAME": "Academy of Citizenship & Empowerment (ACE)", "ADDRESS": "4424 S 188th St", "ZIPCODE": "98188", "DISTRICT": "HIGHLINE" }, "geometry": { "type": "Point", "coordinates": [ -122.277396009507555, 47.435535497767056 ] } },
{ "type": "Feature", "id": 418, "properties": { "CODE": "School - Elementary", "NAME": "Newport Heights Elementary School", "ADDRESS": "5225 119th Ave SE", "ZIPCODE": "98006", "DISTRICT": "BELLEVUE" }, "geometry": { "type": "Point", "coordinates": [ -122.180347255072547, 47.555805404642712 ] } },
{ "type": "Feature", "id": 419, "properties": { "CODE": "School - Elementary", "NAME": "Kirkland Seventh-day Adventist School K-8", "ADDRESS": "5320 108th Ave NE", "ZIPCODE": "98033", "DISTRICT": "LAKE WASHINGTON" }, "geometry": { "type": "Point", "coordinates": [ -122.195506459197233, 47.657042857459381 ] } },
{ "type": "Feature", "id": 420, "properties": { "CODE": "School - Elementary", "NAME": "Pacific Crest School", "ADDRESS": "600 NW Bright St", "ZIPCODE": "98107", "DISTRICT": "SEATTLE" }, "geometry": { "type": "Point", "coordinates": [ -122.364217730897352, 47.66017841043125 ] } },
{ "type": "Feature", "id": 421, "properties": { "CODE": "School - Elementary", "NAME": "Neely-O Brien Elementary School", "ADDRESS": "6300 S 236th St", "ZIPCODE": "98032", "DISTRICT": "KENT" }, "geometry": { "type": "Point", "coordinates": [ -122.256303625744479, 47.39159358520601 ] } },
{ "type": "Feature", "id": 422, "properties": { "CODE": "School - Elementary", "NAME": "Emily Dickinson Elementary School", "ADDRESS": "7040 208th Ave NE", "ZIPCODE": "98053", "DISTRICT": "LAKE WASHINGTON" }, "geometry": { "type": "Point", "coordinates": [ -122.05992501024518, 47.669997951673253 ] } },
{ "type": "Feature", "id": 423, "properties": { "CODE": "School - College or University", "NAME": "Seattle University", "ADDRESS": "901 12th Ave", "ZIPCODE": "98122", "DISTRICT": "SEATTLE" }, "geometry": { "type": "Point", "coordinates": [ -122.317111169529852, 47.610656176896775 ] } },
{ "type": "Feature", "id": 424, "properties": { "CODE": "School - Elementary", "NAME": "Gildo Rey Elementary School", "ADDRESS": "1005 37th St SE", "ZIPCODE": "98002", "DISTRICT": "AUBURN" }, "geometry": { "type": "Point", "coordinates": [ -122.215428911981661, 47.277997388923325 ] } },
{ "type": "Feature", "id": 425, "properties": { "CODE": "School - Elementary", "NAME": "Alexander Graham Bell Elementary School", "ADDRESS": "11212  NE 112th St", "ZIPCODE": "98033", "DISTRICT": "LAKE WASHINGTON" }, "geometry": { "type": "Point", "coordinates": [ -122.191937617002807, 47.701397505400529 ] } },
{ "type": "Feature", "id": 426, "properties": { "CODE": "School - Elementary", "NAME": "Emerald Park Elementary School", "ADDRESS": "11800 SE 216th St", "ZIPCODE": "98031", "DISTRICT": "KENT" }, "geometry": { "type": "Point", "coordinates": [ -122.183134231101405, 47.409823132060701 ] } },
{ "type": "Feature", "id": 427, "properties": { "CODE": "School - Elementary", "NAME": "Hazelwood Elementary School-Auburn", "ADDRESS": "11815 SE 304th St", "ZIPCODE": "98092", "DISTRICT": "AUBURN" }, "geometry": { "type": "Point", "coordinates": [ -122.183628345084202, 47.329092908929645 ] } },
{ "type": "Feature", "id": 428, "properties": { "CODE": "School - Alternative", "NAME": "Northstar Middle School", "ADDRESS": "12033 NE 80th St", "ZIPCODE": "98033", "DISTRICT": "LAKE WASHINGTON" }, "geometry": { "type": "Point", "coordinates": [ -122.18086257942069, 47.673427204178623 ] } },
{ "type": "Feature", "id": 429, "properties": { "CODE": "School - Junior High or Middle", "NAME": "Northshore Jr High School", "ADDRESS": "12101 NE 160th St", "ZIPCODE": "98011", "DISTRICT": "NORTHSHORE" }, "geometry": { "type": "Point", "coordinates": [ -122.179811043803255, 47.743152428131424 ] } },
{ "type": "Feature", "id": 430, "properties": { "CODE": "School - Other facility", "NAME": "Federal Way Memorial Field", "ADDRESS": "1300 S 308th St", "ZIPCODE": "98003", "DISTRICT": "FEDERAL WAY" }, "geometry": { "type": "Point", "coordinates": [ -122.3170607892433, 47.327614218706628 ] } },
{ "type": "Feature", "id": 431, "properties": { "CODE": "School - Elementary", "NAME": "Bailey Gatzert Elementary School", "ADDRESS": "1301 E Yesler Way", "ZIPCODE": "98122", "DISTRICT": "SEATTLE" }, "geometry": { "type": "Point", "coordinates": [ -122.315607547085079, 47.60114458720922 ] } },
{ "type": "Feature", "id": 432, "properties": { "CODE": "School - Elementary", "NAME": "St. Louise School", "ADDRESS": "133 156th Ave SE", "ZIPCODE": "98007", "DISTRICT": "BELLEVUE" }, "geometry": { "type": "Point", "coordinates": [ -122.132854382442716, 47.608497899188663 ] } },
{ "type": "Feature", "id": 433, "properties": { "CODE": "School - College or University", "NAME": "Bellevue College-North Campus", "ADDRESS": "14673 NE 29th Pl", "ZIPCODE": "98007", "DISTRICT": "BELLEVUE" }, "geometry": { "type": "Point", "coordinates": [ -122.145325020607956, 47.634671428013753 ] } },
{ "type": "Feature", "id": 434, "properties": { "CODE": "School - Junior High or Middle", "NAME": "Robinswood Middle School", "ADDRESS": "14844 SE 22nd St", "ZIPCODE": "98007", "DISTRICT": "BELLEVUE" }, "geometry": { "type": "Point", "coordinates": [ -122.141142857313696, 47.592085973278351 ] } },
{ "type": "Feature", "id": 435, "properties": { "CODE": "School - Junior High or Middle", "NAME": "Highland Middle School", "ADDRESS": "15027 Bel Red Rd", "ZIPCODE": "98007", "DISTRICT": "BELLEVUE" }, "geometry": { "type": "Point", "coordinates": [ -122.140783493363628, 47.625867390475165 ] } },
{ "type": "Feature", "id": 436, "properties": { "CODE": "School - Elementary", "NAME": "Seattle Hebrew Academy", "ADDRESS": "1617 Interlaken Dr E", "ZIPCODE": "98112", "DISTRICT": "SEATTLE" }, "geometry": { "type": "Point", "coordinates": [ -122.307927399804271, 47.634422501724679 ] } },
{ "type": "Feature", "id": 437, "properties": { "CODE": "School - Elementary", "NAME": "Grand Ridge Elementary School", "ADDRESS": "1739 NE Park Dr", "ZIPCODE": "98029", "DISTRICT": "ISSAQUAH" }, "geometry": { "type": "Point", "coordinates": [ -122.00474837751554, 47.546805276237372 ] } },
{ "type": "Feature", "id": 438, "properties": { "CODE": "School - Elementary", "NAME": "Westhill Elementary School", "ADDRESS": "19515 88th Ave NE", "ZIPCODE": "98011", "DISTRICT": "NORTHSHORE" }, "geometry": { "type": "Point", "coordinates": [ -122.22447059682176, 47.770326421486878 ] } },
{ "type": "Feature", "id": 439, "properties": { "CODE": "School - Elementary", "NAME": "Marvista Elementary School", "ADDRESS": "19800 Marine View Dr SW", "ZIPCODE": "98166", "DISTRICT": "HIGHLINE" }, "geometry": { "type": "Point", "coordinates": [ -122.341310409449122, 47.425125775584249 ] } },
{ "type": "Feature", "id": 440, "properties": { "CODE": "School - Elementary", "NAME": "Kent View Christian Elementary School", "ADDRESS": "20 49th St NE", "ZIPCODE": "98002", "DISTRICT": "AUBURN" }, "geometry": { "type": "Point", "coordinates": [ -122.229701578555151, 47.350296519775007 ] } },
{ "type": "Feature", "id": 441, "properties": { "CODE": "School - Elementary", "NAME": "Beacon Hill International Elementary School", "ADDRESS": "2025 14th Ave S", "ZIPCODE": "98144", "DISTRICT": "SEATTLE" }, "geometry": { "type": "Point", "coordinates": [ -122.315104496392706, 47.585469648999187 ] } },
{ "type": "Feature", "id": 442, "properties": { "CODE": "School - Junior High or Middle", "NAME": "Pacific Middle School", "ADDRESS": "22705 24th Ave S", "ZIPCODE": "98198", "DISTRICT": "HIGHLINE" }, "geometry": { "type": "Point", "coordinates": [ -122.304011579274629, 47.398385039973071 ] } },
{ "type": "Feature", "id": 443, "properties": { "CODE": "School - Elementary", "NAME": "Talbot Hill Elementary School", "ADDRESS": "2300 Talbot Rd S", "ZIPCODE": "98055", "DISTRICT": "RENTON" }, "geometry": { "type": "Point", "coordinates": [ -122.210990792269044, 47.45847525638942 ] } },
{ "type": "Feature", "id": 444, "properties": { "CODE": "School - Elementary", "NAME": "Pioneer Elementary School", "ADDRESS": "2301 M St SE", "ZIPCODE": "98002", "DISTRICT": "AUBURN" }, "geometry": { "type": "Point", "coordinates": [ -122.214267777292307, 47.288356789944345 ] } },
{ "type": "Feature", "id": 445, "properties": { "CODE": "School - Other facility", "NAME": "Maintenance", "ADDRESS": "23015 SE 216th Way", "ZIPCODE": "98038", "DISTRICT": "TAHOMA" }, "geometry": { "type": "Point", "coordinates": [ -122.033725010798634, 47.407327978988363 ] } },
{ "type": "Feature", "id": 446, "properties": { "CODE": "School - Elementary", "NAME": "Black Diamond Elementary School", "ADDRESS": "25314 Baker St", "ZIPCODE": "98010", "DISTRICT": "ENUMCLAW" }, "geometry": { "type": "Point", "coordinates": [ -122.004983518802717, 47.309839808243453 ] } },
{ "type": "Feature", "id": 447, "properties": { "CODE": "School - Elementary", "NAME": "Catharine Blaine K-8 School", "ADDRESS": "2550 34th Ave W", "ZIPCODE": "98199", "DISTRICT": "SEATTLE" }, "geometry": { "type": "Point", "coordinates": [ -122.40039660376371, 47.642778867005539 ] } },
{ "type": "Feature", "id": 448, "properties": { "CODE": "School - Elementary", "NAME": "Pine Tree Elementary School", "ADDRESS": "27825 118th Ave SE", "ZIPCODE": "98030", "DISTRICT": "KENT" }, "geometry": { "type": "Point", "coordinates": [ -122.184975430911919, 47.35204297319752 ] } },
{ "type": "Feature", "id": 449, "properties": { "CODE": "School - Elementary", "NAME": "Valhalla Elementary School", "ADDRESS": "27847 42nd Ave S", "ZIPCODE": "98001", "DISTRICT": "FEDERAL WAY" }, "geometry": { "type": "Point", "coordinates": [ -122.281789645453728, 47.351226994364445 ] } },
{ "type": "Feature", "id": 450, "properties": { "CODE": "School - Alternative", "NAME": "Eagle Rock Multi-Age Program", "ADDRESS": "29300 NE 150th St", "ZIPCODE": "98019", "DISTRICT": "RIVERVIEW" }, "geometry": { "type": "Point", "coordinates": [ -121.949102353937519, 47.734902551883174 ] } },
{ "type": "Feature", "id": 451, "properties": { "CODE": "School - Elementary", "NAME": "Ilalko Elementary School", "ADDRESS": "301 Oravetz Pl SE", "ZIPCODE": "98092", "DISTRICT": "AUBURN" }, "geometry": { "type": "Point", "coordinates": [ -122.227472866187512, 47.263972708167778 ] } },
{ "type": "Feature", "id": 452, "properties": { "CODE": "School - Elementary", "NAME": "Dunlap Elementary School", "ADDRESS": "4525 S Cloverdale St", "ZIPCODE": "98118", "DISTRICT": "SEATTLE" }, "geometry": { "type": "Point", "coordinates": [ -122.274837832545344, 47.524961787753284 ] } },
{ "type": "Feature", "id": 453, "properties": { "CODE": "School - Elementary", "NAME": "St George Parish School", "ADDRESS": "5117 13th Ave S", "ZIPCODE": "98108", "DISTRICT": "SEATTLE" }, "geometry": { "type": "Point", "coordinates": [ -122.316409250996145, 47.555869198837051 ] } },
{ "type": "Feature", "id": 454, "properties": { "CODE": "School - Elementary", "NAME": "Concordia Lutheran School", "ADDRESS": "7040 36th Ave NE", "ZIPCODE": "98115", "DISTRICT": "SEATTLE" }, "geometry": { "type": "Point", "coordinates": [ -122.289104461180344, 47.680510606032215 ] } },
{ "type": "Feature", "id": 455, "properties": { "CODE": "School - College or University", "NAME": "North Seattle College", "ADDRESS": "9600 College Way N", "ZIPCODE": "98103", "DISTRICT": "SEATTLE" }, "geometry": { "type": "Point", "coordinates": [ -122.332619070786976, 47.699389872741556 ] } },
{ "type": "Feature", "id": 456, "properties": { "CODE": "School - Junior High or Middle", "NAME": "Cascade Middle School-Highline", "ADDRESS": "11212 10th Ave SW", "ZIPCODE": "98146", "DISTRICT": "HIGHLINE" }, "geometry": { "type": "Point", "coordinates": [ -122.346443309762776, 47.502289110592649 ] } },
{ "type": "Feature", "id": 457, "properties": { "CODE": "School - Elementary", "NAME": "Rainier View Elementary School-Seattle", "ADDRESS": "11650 Beacon Ave S", "ZIPCODE": "98178", "DISTRICT": "SEATTLE" }, "geometry": { "type": "Point", "coordinates": [ -122.263171694028685, 47.498863134331344 ] } },
{ "type": "Feature", "id": 458, "properties": { "CODE": "School - Other facility", "NAME": "Transportation-Shoreline", "ADDRESS": "1216 NE 165th St", "ZIPCODE": "98155", "DISTRICT": "SHORELINE" }, "geometry": { "type": "Point", "coordinates": [ -122.314619799702243, 47.749044008295051 ] } },
{ "type": "Feature", "id": 459, "properties": { "CODE": "School - Alternative", "NAME": "French Immersion School of Washington", "ADDRESS": "4211 W Lake Sammamish Pkwy SE", "ZIPCODE": "98008", "DISTRICT": "ISSAQUAH" }, "geometry": { "type": "Point", "coordinates": [ -122.101860630590551, 47.569855609677056 ] } },
{ "type": "Feature", "id": 460, "properties": { "CODE": "School - Elementary", "NAME": "St. Alphonsus School", "ADDRESS": "5816 15th Ave NW", "ZIPCODE": "98107", "DISTRICT": "SEATTLE" }, "geometry": { "type": "Point", "coordinates": [ -122.375613353467898, 47.671429659506813 ] } },
{ "type": "Feature", "id": 461, "properties": { "CODE": "School - K thru 12", "NAME": "Cedar Park Christian School", "ADDRESS": "16300 112th Ave NE", "ZIPCODE": "98011", "DISTRICT": "NORTHSHORE" }, "geometry": { "type": "Point", "coordinates": [ -122.189391491199714, 47.746646421435571 ] } },
{ "type": "Feature", "id": 462, "properties": { "CODE": "School - Alternative", "NAME": "Interagency Academy", "ADDRESS": "3528 S Ferdinand St", "ZIPCODE": "98118", "DISTRICT": "SEATTLE" }, "geometry": { "type": "Point", "coordinates": [ -122.287113508854105, 47.558180901940894 ] } },
{ "type": "Feature", "id": 463, "properties": { "CODE": "School - Elementary", "NAME": "Epiphany School", "ADDRESS": "3611 E Denny Way", "ZIPCODE": "98122", "DISTRICT": "SEATTLE" }, "geometry": { "type": "Point", "coordinates": [ -122.286779700528982, 47.618107148174822 ] } },
{ "type": "Feature", "id": 464, "properties": { "CODE": "School - Alternative", "NAME": "Cascadia Elementary School", "ADDRESS": "4400 Interlake Ave N", "ZIPCODE": "98103", "DISTRICT": "SEATTLE" }, "geometry": { "type": "Point", "coordinates": [ -122.339894431230377, 47.659921436730741 ] } },
{ "type": "Feature", "id": 465, "properties": { "CODE": "School - Elementary", "NAME": "Genesee Hill Elementary School", "ADDRESS": "5012 SW Genesee St", "ZIPCODE": "98116", "DISTRICT": "SEATTLE" }, "geometry": { "type": "Point", "coordinates": [ -122.396888024345245, 47.565492904995331 ] } },
{ "type": "Feature", "id": 466, "properties": { "CODE": "School - Elementary", "NAME": "Olympic View Elementary School-Seattle", "ADDRESS": "504 NE 95th St", "ZIPCODE": "98115", "DISTRICT": "SEATTLE" }, "geometry": { "type": "Point", "coordinates": [ -122.321261032524191, 47.698208838841744 ] } },
{ "type": "Feature", "id": 467, "properties": { "CODE": "School - Alternative", "NAME": "Orca K-8 School", "ADDRESS": "5215 46th Ave S", "ZIPCODE": "98118", "DISTRICT": "SEATTLE" }, "geometry": { "type": "Point", "coordinates": [ -122.27595439599861, 47.554780616188744 ] } },
{ "type": "Feature", "id": 468, "properties": { "CODE": "School - Other facility", "NAME": "Administrative Building-Issaquah", "ADDRESS": "565 NW Holly St", "ZIPCODE": "98027", "DISTRICT": "ISSAQUAH" }, "geometry": { "type": "Point", "coordinates": [ -122.04240169343467, 47.5368666390398 ] } },
{ "type": "Feature", "id": 469, "properties": { "CODE": "School - Elementary", "NAME": "Martin Luther King Jr. Elementary School", "ADDRESS": "6725 45th Ave S", "ZIPCODE": "98118", "DISTRICT": "SEATTLE" }, "geometry": { "type": "Point", "coordinates": [ -122.27690972255678, 47.54174510601252 ] } },
{ "type": "Feature", "id": 470, "properties": { "CODE": "School - Elementary", "NAME": "Lakeridge Elementary School-Renton", "ADDRESS": "7400 S 115th St", "ZIPCODE": "98178", "DISTRICT": "RENTON" }, "geometry": { "type": "Point", "coordinates": [ -122.239960730156952, 47.499813857743447 ] } },
{ "type": "Feature", "id": 471, "properties": { "CODE": "School - Elementary", "NAME": "Sunrise Elementary School-Enumclaw", "ADDRESS": "899 Osceola St S", "ZIPCODE": "98022", "DISTRICT": "ENUMCLAW" }, "geometry": { "type": "Point", "coordinates": [ -122.01475094587029, 47.185532869091283 ] } },
{ "type": "Feature", "id": 472, "properties": { "CODE": "School - High", "NAME": "Raisbeck Aviation High School", "ADDRESS": "9229 E Marginal Way S", "ZIPCODE": "98108", "DISTRICT": "SEATTLE" }, "geometry": { "type": "Point", "coordinates": [ -122.301891418731316, 47.520693207438917 ] } },
{ "type": "Feature", "id": 473, "properties": { "CODE": "School - Elementary", "NAME": "Mark Twain Elementary School-Lake Washington", "ADDRESS": "9525 130th Ave NE", "ZIPCODE": "98033", "DISTRICT": "LAKE WASHINGTON" }, "geometry": { "type": "Point", "coordinates": [ -122.169228417078941, 47.686876124351656 ] } },
{ "type": "Feature", "id": 474, "properties": { "CODE": "School - Elementary", "NAME": "Mark Twain Elementary School-Federal Way", "ADDRESS": "2450 S Star Lake Rd", "ZIPCODE": "98003", "DISTRICT": "FEDERAL WAY" }, "geometry": { "type": "Point", "coordinates": [ -122.298834665125852, 47.35635450998582 ] } },
{ "type": "Feature", "id": 475, "properties": { "CODE": "School - Elementary", "NAME": "Olympic View Elementary School-Federal Way", "ADDRESS": "2626 SW 327th St", "ZIPCODE": "98023", "DISTRICT": "FEDERAL WAY" }, "geometry": { "type": "Point", "coordinates": [ -122.366860712770006, 47.309363074468934 ] } },
{ "type": "Feature", "id": 476, "properties": { "CODE": "School - Elementary", "NAME": "Nautilus K-8 School", "ADDRESS": "1000 S 289th St", "ZIPCODE": "98003", "DISTRICT": "FEDERAL WAY" }, "geometry": { "type": "Point", "coordinates": [ -122.322248930619409, 47.341990875230699 ] } },
{ "type": "Feature", "id": 477, "properties": { "CODE": "School - Elementary", "NAME": "Enatai Elementary School", "ADDRESS": "10615 SE 23rd St", "ZIPCODE": "98004", "DISTRICT": "BELLEVUE" }, "geometry": { "type": "Point", "coordinates": [ -122.198494677090352, 47.58955310301743 ] } },
{ "type": "Feature", "id": 478, "properties": { "CODE": "School - High", "NAME": "Roosevelt High School", "ADDRESS": "1410 NE 66th St", "ZIPCODE": "98115", "DISTRICT": "SEATTLE" }, "geometry": { "type": "Point", "coordinates": [ -122.312716733244869, 47.677009317209667 ] } },
{ "type": "Feature", "id": 479, "properties": { "CODE": "School - Elementary", "NAME": "Adelaide Elementary School", "ADDRESS": "1635 SW 304th St", "ZIPCODE": "98023", "DISTRICT": "FEDERAL WAY" }, "geometry": { "type": "Point", "coordinates": [ -122.356661205958247, 47.329040427917747 ] } },
{ "type": "Feature", "id": 480, "properties": { "CODE": "School - Elementary", "NAME": "Echo Lake Elementary School", "ADDRESS": "19345 Wallingford Ave N", "ZIPCODE": "98133", "DISTRICT": "SHORELINE" }, "geometry": { "type": "Point", "coordinates": [ -122.339148041116715, 47.770066614943495 ] } },
{ "type": "Feature", "id": 481, "properties": { "CODE": "School - Other facility", "NAME": "Administration Center-Riverview", "ADDRESS": "32240 NE 50th St", "ZIPCODE": "98014", "DISTRICT": "RIVERVIEW" }, "geometry": { "type": "Point", "coordinates": [ -121.908758336695882, 47.651779104262445 ] } },
{ "type": "Feature", "id": 482, "properties": { "CODE": "School - Alternative", "NAME": "John Stanford International Elementary School at Latona", "ADDRESS": "4057 5th Ave NE", "ZIPCODE": "98105", "DISTRICT": "SEATTLE" }, "geometry": { "type": "Point", "coordinates": [ -122.324053720561253, 47.65752770950423 ] } },
{ "type": "Feature", "id": 483, "properties": { "CODE": "School - Other facility", "NAME": "Transportation\/Maintenance", "ADDRESS": "420 Park Ave N", "ZIPCODE": "98057", "DISTRICT": "RENTON" }, "geometry": { "type": "Point", "coordinates": [ -122.201840932608278, 47.488971985619841 ] } },
{ "type": "Feature", "id": 484, "properties": { "CODE": "School - Elementary", "NAME": "Holy Family Bilingual Catholic School", "ADDRESS": "9615 20th Ave SW", "ZIPCODE": "98106", "DISTRICT": "SEATTLE" }, "geometry": { "type": "Point", "coordinates": [ -122.359465725052317, 47.516976641252974 ] } },
{ "type": "Feature", "id": 485, "properties": { "CODE": "School - Elementary", "NAME": "Maplewood Heights Elementary School", "ADDRESS": "130 Jericho Ave SE", "ZIPCODE": "98059", "DISTRICT": "RENTON" }, "geometry": { "type": "Point", "coordinates": [ -122.147101311318792, 47.482407479328252 ] } },
{ "type": "Feature", "id": 486, "properties": { "CODE": "School - Elementary", "NAME": "Westwood Elementary School", "ADDRESS": "21200 SE 416th St", "ZIPCODE": "98022", "DISTRICT": "ENUMCLAW" }, "geometry": { "type": "Point", "coordinates": [ -122.057980453386605, 47.228949044896957 ] } },
{ "type": "Feature", "id": 487, "properties": { "CODE": "School - Elementary", "NAME": "Samantha Smith Elementary School", "ADDRESS": "23305 NE 14th St", "ZIPCODE": "98074", "DISTRICT": "LAKE WASHINGTON" }, "geometry": { "type": "Point", "coordinates": [ -122.027295671515049, 47.620810927698734 ] } },
{ "type": "Feature", "id": 488, "properties": { "CODE": "School - Other facility", "NAME": "Auburn Administrative Center", "ADDRESS": "915 4th St NE", "ZIPCODE": "98002", "DISTRICT": "AUBURN" }, "geometry": { "type": "Point", "coordinates": [ -122.217165131775815, 47.311986814921489 ] } },
{ "type": "Feature", "id": 489, "properties": { "CODE": "School - Elementary", "NAME": "Van Asselt Elementary School", "ADDRESS": "7201 Beacon Ave S", "ZIPCODE": "98108", "DISTRICT": "SEATTLE" }, "geometry": { "type": "Point", "coordinates": [ -122.295690307202861, 47.537533256874063 ] } },
{ "type": "Feature", "id": 490, "properties": { "CODE": "School - Elementary", "NAME": "Frantz H. Coe Elementary School", "ADDRESS": "2424 7th Ave W", "ZIPCODE": "98119", "DISTRICT": "SEATTLE" }, "geometry": { "type": "Point", "coordinates": [ -122.365598538347498, 47.640515939493447 ] } },
{ "type": "Feature", "id": 491, "properties": { "CODE": "School - Elementary", "NAME": "Woodmont K-8 School", "ADDRESS": "26454 16th Ave S", "ZIPCODE": "98198", "DISTRICT": "FEDERAL WAY" }, "geometry": { "type": "Point", "coordinates": [ -122.312256187655464, 47.363229656389244 ] } },
{ "type": "Feature", "id": 492, "properties": { "CODE": "School - Junior High or Middle", "NAME": "Edmonds S. Meany Middle School", "ADDRESS": "301 21st Ave E", "ZIPCODE": "98112", "DISTRICT": "SEATTLE" }, "geometry": { "type": "Point", "coordinates": [ -122.305300860536917, 47.621599301747452 ] } },
{ "type": "Feature", "id": 493, "properties": { "CODE": "School - Elementary", "NAME": "Captain George W. Kimball Elementary School", "ADDRESS": "3200 23rd Ave S", "ZIPCODE": "98144", "DISTRICT": "SEATTLE" }, "geometry": { "type": "Point", "coordinates": [ -122.30301251521864, 47.574047117243936 ] } },
{ "type": "Feature", "id": 494, "properties": { "CODE": "School - Junior High or Middle", "NAME": "Evergreen Middle School", "ADDRESS": "6900 208th Ave NE", "ZIPCODE": "98053", "DISTRICT": "LAKE WASHINGTON" }, "geometry": { "type": "Point", "coordinates": [ -122.06051027994198, 47.668138169435629 ] } },
{ "type": "Feature", "id": 495, "properties": { "CODE": "School - Elementary", "NAME": "John Muir Elementary School", "ADDRESS": "14012 132nd Ave NE", "ZIPCODE": "98034", "DISTRICT": "LAKE WASHINGTON" }, "geometry": { "type": "Point", "coordinates": [ -122.163377439842833, 47.726866474370055 ] } },
{ "type": "Feature", "id": 496, "properties": { "CODE": "School - Elementary", "NAME": "Meridian Elementary School", "ADDRESS": "25621 140th Ave SE", "ZIPCODE": "98042", "DISTRICT": "KENT" }, "geometry": { "type": "Point", "coordinates": [ -122.155785055743095, 47.371835846365769 ] } },
{ "type": "Feature", "id": 497, "properties": { "CODE": "School - High", "NAME": "Eastlake High School", "ADDRESS": "400 228th Ave NE", "ZIPCODE": "98074", "DISTRICT": "LAKE WASHINGTON" }, "geometry": { "type": "Point", "coordinates": [ -122.030803336467002, 47.613401320344991 ] } },
{ "type": "Feature", "id": 498, "properties": { "CODE": "School - Alternative", "NAME": "International School", "ADDRESS": "445 128th Ave SE", "ZIPCODE": "98005", "DISTRICT": "BELLEVUE" }, "geometry": { "type": "Point", "coordinates": [ -122.170580339912249, 47.604032930164742 ] } },
{ "type": "Feature", "id": 499, "properties": { "CODE": "School - Elementary", "NAME": "Northwest Montessori - Woodland Park", "ADDRESS": "4910 Phinney Ave N", "ZIPCODE": "98103", "DISTRICT": "SEATTLE" }, "geometry": { "type": "Point", "coordinates": [ -122.353645957772429, 47.66480047694791 ] } },
{ "type": "Feature", "id": 500, "properties": { "CODE": "School - College or University", "NAME": "City University-Renton", "ADDRESS": "555 S Renton Village Pl", "ZIPCODE": "98057", "DISTRICT": "RENTON" }, "geometry": { "type": "Point", "coordinates": [ -122.211391791425086, 47.469067942323676 ] } },
{ "type": "Feature", "id": 501, "properties": { "CODE": "School - Junior High or Middle", "NAME": "McMurray Middle School", "ADDRESS": "9329 SW Cemetery Rd", "ZIPCODE": "98070", "DISTRICT": "VASHON ISLAND" }, "geometry": { "type": "Point", "coordinates": [ -122.454359589340214, 47.42863050217661 ] } },
{ "type": "Feature", "id": 502, "properties": { "CODE": "School - Junior High or Middle", "NAME": "Nathan Eckstein Middle School", "ADDRESS": "3003 NE 75th St", "ZIPCODE": "98115", "DISTRICT": "SEATTLE" }, "geometry": { "type": "Point", "coordinates": [ -122.294871644553098, 47.682589228834651 ] } },
{ "type": "Feature", "id": 503, "properties": { "CODE": "School - Junior High or Middle", "NAME": "Cascade Middle School-Auburn", "ADDRESS": "1015 24th St NE", "ZIPCODE": "98002", "DISTRICT": "AUBURN" }, "geometry": { "type": "Point", "coordinates": [ -122.215065498307837, 47.329272827757563 ] } },
{ "type": "Feature", "id": 504, "properties": { "CODE": "School - Junior High or Middle", "NAME": "Chinook Middle School-Bellevue", "ADDRESS": "2001 98th Ave NE", "ZIPCODE": "98004", "DISTRICT": "BELLEVUE" }, "geometry": { "type": "Point", "coordinates": [ -122.211083485355431, 47.628142031046366 ] } },
{ "type": "Feature", "id": 505, "properties": { "CODE": "School - Elementary", "NAME": "Open Window School", "ADDRESS": "6128 168th Pl SE", "ZIPCODE": "98006", "DISTRICT": "ISSAQUAH" }, "geometry": { "type": "Point", "coordinates": [ -122.114324386041048, 47.547021403611417 ] } },
{ "type": "Feature", "id": 506, "properties": { "CODE": "School - Alternative", "NAME": "Middle College High School at Seattle University", "ADDRESS": "901 12th Ave", "ZIPCODE": "98122", "DISTRICT": "SEATTLE" }, "geometry": { "type": "Point", "coordinates": [ -122.317110329804564, 47.610655326925382 ] } },
{ "type": "Feature", "id": 507, "properties": { "CODE": "School - Elementary", "NAME": "Lakeridge Elementary School-Mercer Island", "ADDRESS": "8215 SE 78th St", "ZIPCODE": "98040", "DISTRICT": "MERCER ISLAND" }, "geometry": { "type": "Point", "coordinates": [ -122.228639285570011, 47.53246201091445 ] } },
{ "type": "Feature", "id": 508, "properties": { "CODE": "School - K thru 12", "NAME": "Woodinville Montessori School - Woodinville Campus", "ADDRESS": "13965 NE 166th St", "ZIPCODE": "98072", "DISTRICT": "NORTHSHORE" }, "geometry": { "type": "Point", "coordinates": [ -122.151159371230335, 47.747904158703967 ] } },
{ "type": "Feature", "id": 509, "properties": { "CODE": "School - Elementary", "NAME": "Highland Terrace Elementary School", "ADDRESS": "100 N 160th St", "ZIPCODE": "98133", "DISTRICT": "SHORELINE" }, "geometry": { "type": "Point", "coordinates": [ -122.359434620227475, 47.745692153147822 ] } },
{ "type": "Feature", "id": 510, "properties": { "CODE": "School - College or University", "NAME": "Cornish College of the Arts", "ADDRESS": "1000 Lenora St", "ZIPCODE": "98121", "DISTRICT": "SEATTLE" }, "geometry": { "type": "Point", "coordinates": [ -122.336288239664597, 47.618156163255293 ] } },
{ "type": "Feature", "id": 511, "properties": { "CODE": "School - Elementary", "NAME": "St. Paul School", "ADDRESS": "10001 57th Ave S", "ZIPCODE": "98178", "DISTRICT": "SEATTLE" }, "geometry": { "type": "Point", "coordinates": [ -122.26276424566926, 47.510420160581027 ] } },
{ "type": "Feature", "id": 512, "properties": { "CODE": "School - Junior High or Middle", "NAME": "Explorer West Middle School", "ADDRESS": "10015 28th Ave SW", "ZIPCODE": "98146", "DISTRICT": "HIGHLINE" }, "geometry": { "type": "Point", "coordinates": [ -122.369327781758514, 47.513202277435376 ] } },
{ "type": "Feature", "id": 513, "properties": { "CODE": "School - Elementary", "NAME": "White Center Heights Elementary School", "ADDRESS": "10015 6th Ave SW", "ZIPCODE": "98146", "DISTRICT": "HIGHLINE" }, "geometry": { "type": "Point", "coordinates": [ -122.344116267775419, 47.513310110419624 ] } },
{ "type": "Feature", "id": 514, "properties": { "CODE": "School - High", "NAME": "Kent-Meridian High School", "ADDRESS": "10020 SE 256th St", "ZIPCODE": "98030", "DISTRICT": "KENT" }, "geometry": { "type": "Point", "coordinates": [ -122.207626595742838, 47.373404033202185 ] } },
{ "type": "Feature", "id": 515, "properties": { "CODE": "School - Junior High or Middle", "NAME": "Redmond Middle School", "ADDRESS": "10055 166th Ave NE", "ZIPCODE": "98052", "DISTRICT": "LAKE WASHINGTON" }, "geometry": { "type": "Point", "coordinates": [ -122.119788064656589, 47.691700343217043 ] } },
{ "type": "Feature", "id": 516, "properties": { "CODE": "School - Elementary", "NAME": "Amazing Grace Christian School", "ADDRESS": "10056 Renton Ave S", "ZIPCODE": "98178", "DISTRICT": "SEATTLE" }, "geometry": { "type": "Point", "coordinates": [ -122.259757560822194, 47.510872000159274 ] } },
{ "type": "Feature", "id": 517, "properties": { "CODE": "School - Elementary", "NAME": "St. Anne School", "ADDRESS": "101 W Lee St", "ZIPCODE": "98119", "DISTRICT": "SEATTLE" }, "geometry": { "type": "Point", "coordinates": [ -122.358137259681072, 47.631104022606536 ] } },
{ "type": "Feature", "id": 518, "properties": { "CODE": "School - Elementary", "NAME": "Panther Lake Elementary School-Kent", "ADDRESS": "10200 SE 216th St", "ZIPCODE": "98031", "DISTRICT": "KENT" }, "geometry": { "type": "Point", "coordinates": [ -122.204637520584356, 47.409630838602986 ] } },
{ "type": "Feature", "id": 519, "properties": { "CODE": "School - Elementary", "NAME": "St. Bernadette School", "ADDRESS": "1028 SW 128th St", "ZIPCODE": "98146", "DISTRICT": "HIGHLINE" }, "geometry": { "type": "Point", "coordinates": [ -122.348164654956989, 47.489112679287906 ] } },
{ "type": "Feature", "id": 520, "properties": { "CODE": "School - Elementary", "NAME": "Dick Scobee Elementary School", "ADDRESS": "1031 14th St NE", "ZIPCODE": "98002", "DISTRICT": "AUBURN" }, "geometry": { "type": "Point", "coordinates": [ -122.217358465909754, 47.320821642851037 ] } },
{ "type": "Feature", "id": 521, "properties": { "CODE": "School - Elementary", "NAME": "Rachel Carson Elementary School", "ADDRESS": "1035 244th Ave NE", "ZIPCODE": "98074", "DISTRICT": "LAKE WASHINGTON" }, "geometry": { "type": "Point", "coordinates": [ -122.015397452276233, 47.61956969917162 ] } },
{ "type": "Feature", "id": 522, "properties": { "CODE": "School - High", "NAME": "Bellevue High School", "ADDRESS": "10416 SE Wolverine Way", "ZIPCODE": "98004", "DISTRICT": "BELLEVUE" }, "geometry": { "type": "Point", "coordinates": [ -122.197680167807434, 47.604404895661453 ] } },
{ "type": "Feature", "id": 523, "properties": { "CODE": "School - K thru 12", "NAME": "Skykomish K-12 School", "ADDRESS": "105 6th St N", "ZIPCODE": "98288", "DISTRICT": "SKYKOMISH" }, "geometry": { "type": "Point", "coordinates": [ -121.362419633073046, 47.709339916351702 ] } },
{ "type": "Feature", "id": 524, "properties": { "CODE": "School - Elementary", "NAME": "Phantom Lake Elementary School", "ADDRESS": "1050 160th Ave SE", "ZIPCODE": "98008", "DISTRICT": "BELLEVUE" }, "geometry": { "type": "Point", "coordinates": [ -122.12543061852611, 47.600496647493742 ] } },
{ "type": "Feature", "id": 525, "properties": { "CODE": "School - Elementary", "NAME": "Lowell Elementary School", "ADDRESS": "1058 E Mercer St", "ZIPCODE": "98102", "DISTRICT": "SEATTLE" }, "geometry": { "type": "Point", "coordinates": [ -122.318335416377948, 47.624426981096867 ] } },
{ "type": "Feature", "id": 526, "properties": { "CODE": "School - High", "NAME": "Juanita High School", "ADDRESS": "10601 NE 132nd St", "ZIPCODE": "98034", "DISTRICT": "LAKE WASHINGTON" }, "geometry": { "type": "Point", "coordinates": [ -122.198624272747637, 47.715496037124126 ] } },
{ "type": "Feature", "id": 527, "properties": { "CODE": "School - Alternative", "NAME": "Futures School", "ADDRESS": "10601 NE 132nd St", "ZIPCODE": "98034", "DISTRICT": "LAKE WASHINGTON" }, "geometry": { "type": "Point", "coordinates": [ -122.198624344812487, 47.715498778166051 ] } },
{ "type": "Feature", "id": 528, "properties": { "CODE": "School - Elementary", "NAME": "Mount View Elementary School", "ADDRESS": "10811 12th Ave SW", "ZIPCODE": "98146", "DISTRICT": "HIGHLINE" }, "geometry": { "type": "Point", "coordinates": [ -122.350667512757155, 47.50617303216162 ] } },
{ "type": "Feature", "id": 529, "properties": { "CODE": "School - Alternative", "NAME": "Emerson K-12", "ADDRESS": "10903 NE 53rd St", "ZIPCODE": "98033", "DISTRICT": "LAKE WASHINGTON" }, "geometry": { "type": "Point", "coordinates": [ -122.195554020694601, 47.655295688259244 ] } },
{ "type": "Feature", "id": 530, "properties": { "CODE": "School - Alternative", "NAME": "Emerson High School", "ADDRESS": "10903 NE 53rd St", "ZIPCODE": "98033", "DISTRICT": "LAKE WASHINGTON" }, "geometry": { "type": "Point", "coordinates": [ -122.195554092514143, 47.655298429310427 ] } },
{ "type": "Feature", "id": 531, "properties": { "CODE": "School - Alternative", "NAME": "Kent Phoenix Academy", "ADDRESS": "11000 SE 264th St", "ZIPCODE": "98030", "DISTRICT": "KENT" }, "geometry": { "type": "Point", "coordinates": [ -122.193827532748486, 47.366312776254837 ] } },
{ "type": "Feature", "id": 532, "properties": { "CODE": "School - Elementary", "NAME": "Terminal Park Elementary School", "ADDRESS": "1101 D St SE", "ZIPCODE": "98002", "DISTRICT": "AUBURN" }, "geometry": { "type": "Point", "coordinates": [ -122.224715453222757, 47.298003659856725 ] } },
{ "type": "Feature", "id": 533, "properties": { "CODE": "School - High", "NAME": "Hazen High School", "ADDRESS": "1101 Hoquiam Ave NE", "ZIPCODE": "98059", "DISTRICT": "RENTON" }, "geometry": { "type": "Point", "coordinates": [ -122.15234799971816, 47.50163037192214 ] } },
{ "type": "Feature", "id": 534, "properties": { "CODE": "School - Junior High or Middle", "NAME": "Sacajawea Middle School", "ADDRESS": "1101 S Dash Point Rd", "ZIPCODE": "98003", "DISTRICT": "FEDERAL WAY" }, "geometry": { "type": "Point", "coordinates": [ -122.318754623700272, 47.334290669050802 ] } },
{ "type": "Feature", "id": 535, "properties": { "CODE": "School - Elementary", "NAME": "Park Orchard Elementary School", "ADDRESS": "11010 SE 232nd St", "ZIPCODE": "98031", "DISTRICT": "KENT" }, "geometry": { "type": "Point", "coordinates": [ -122.193540310510087, 47.395292731050304 ] } },
{ "type": "Feature", "id": 536, "properties": { "CODE": "School - Junior High or Middle", "NAME": "Jane Addams Middle School", "ADDRESS": "11051 34th Ave NE", "ZIPCODE": "98125", "DISTRICT": "SEATTLE" }, "geometry": { "type": "Point", "coordinates": [ -122.292750637167828, 47.709860673339548 ] } },
{ "type": "Feature", "id": 537, "properties": { "CODE": "School - Elementary", "NAME": "Norman Rockwell Elementary School", "ADDRESS": "11125 162nd Ave NE", "ZIPCODE": "98052", "DISTRICT": "LAKE WASHINGTON" }, "geometry": { "type": "Point", "coordinates": [ -122.124652441514684, 47.699352721388443 ] } },
{ "type": "Feature", "id": 538, "properties": { "CODE": "School - Elementary", "NAME": "Madrona K-8 School", "ADDRESS": "1121 33rd Ave", "ZIPCODE": "98122", "DISTRICT": "SEATTLE" }, "geometry": { "type": "Point", "coordinates": [ -122.290868073074634, 47.612237471451003 ] } },
{ "type": "Feature", "id": 539, "properties": { "CODE": "School - Elementary", "NAME": "West Seattle Montessori School & Academy", "ADDRESS": "11215 15th Ave SW", "ZIPCODE": "98146", "DISTRICT": "HIGHLINE" }, "geometry": { "type": "Point", "coordinates": [ -122.354283933523902, 47.502241943133413 ] } },
{ "type": "Feature", "id": 540, "properties": { "CODE": "School - High", "NAME": "Skyline High School", "ADDRESS": "1122 228th Ave SE", "ZIPCODE": "98075", "DISTRICT": "ISSAQUAH" }, "geometry": { "type": "Point", "coordinates": [ -122.03140794429784, 47.600036799036232 ] } },
{ "type": "Feature", "id": 541, "properties": { "CODE": "School - Elementary", "NAME": "George T. Daniel Elementary School", "ADDRESS": "11310 SE 248th St", "ZIPCODE": "98030", "DISTRICT": "KENT" }, "geometry": { "type": "Point", "coordinates": [ -122.189890733350268, 47.380080498991042 ] } },
{ "type": "Feature", "id": 542, "properties": { "CODE": "School - Alternative", "NAME": "Hazel Wolf K-8 School", "ADDRESS": "11530 12th Ave NE", "ZIPCODE": "98125", "DISTRICT": "SEATTLE" }, "geometry": { "type": "Point", "coordinates": [ -122.314616328313903, 47.713455838297655 ] } },
{ "type": "Feature", "id": 543, "properties": { "CODE": "School - Elementary", "NAME": "Stillwater Elementary School", "ADDRESS": "11530 320th Ave NE", "ZIPCODE": "98014", "DISTRICT": "RIVERVIEW" }, "geometry": { "type": "Point", "coordinates": [ -121.909617835823752, 47.700554978413493 ] } },
{ "type": "Feature", "id": 544, "properties": { "CODE": "School - College or University", "NAME": "Lake Washington Institute of Technology Kirkland Campus", "ADDRESS": "11605 132nd Ave NE", "ZIPCODE": "98034", "DISTRICT": "LAKE WASHINGTON" }, "geometry": { "type": "Point", "coordinates": [ -122.166881958116974, 47.704618979448618 ] } },
{ "type": "Feature", "id": 545, "properties": { "CODE": "School - Alternative", "NAME": "Washington Network for Innovative Careers", "ADDRESS": "11605 132nd Ave NE", "ZIPCODE": "98034", "DISTRICT": "LAKE WASHINGTON" }, "geometry": { "type": "Point", "coordinates": [ -122.166881958116974, 47.704618979448618 ] } },
{ "type": "Feature", "id": 546, "properties": { "CODE": "School - Elementary", "NAME": "Northgate Elementary School", "ADDRESS": "11725 1st Ave NE", "ZIPCODE": "98125", "DISTRICT": "SEATTLE" }, "geometry": { "type": "Point", "coordinates": [ -122.32934329906098, 47.714834716967815 ] } },
{ "type": "Feature", "id": 547, "properties": { "CODE": "School - Elementary", "NAME": "Robert Frost Elementary School", "ADDRESS": "11801 NE 140th St", "ZIPCODE": "98034", "DISTRICT": "LAKE WASHINGTON" }, "geometry": { "type": "Point", "coordinates": [ -122.183367562823051, 47.724852097804558 ] } },
{ "type": "Feature", "id": 548, "properties": { "CODE": "School - Elementary", "NAME": "Millennium Elementary School", "ADDRESS": "11919 SE 270th St", "ZIPCODE": "98030", "DISTRICT": "KENT" }, "geometry": { "type": "Point", "coordinates": [ -122.181024582816093, 47.358895459806469 ] } },
{ "type": "Feature", "id": 549, "properties": { "CODE": "School - Elementary", "NAME": "St. John Catholic School", "ADDRESS": "120 N 79th St", "ZIPCODE": "98103", "DISTRICT": "SEATTLE" }, "geometry": { "type": "Point", "coordinates": [ -122.3569746164506, 47.686409744249829 ] } },
{ "type": "Feature", "id": 550, "properties": { "CODE": "School - High", "NAME": "Seattle Academy - Upper School", "ADDRESS": "1201 E Union St", "ZIPCODE": "98122", "DISTRICT": "SEATTLE" }, "geometry": { "type": "Point", "coordinates": [ -122.316350676030297, 47.612711622475892 ] } },
{ "type": "Feature", "id": 551, "properties": { "CODE": "School - Elementary", "NAME": "Beverly Park Elementary School", "ADDRESS": "1201 S 104th St", "ZIPCODE": "98168", "DISTRICT": "HIGHLINE" }, "geometry": { "type": "Point", "coordinates": [ -122.317431583261836, 47.509436510529738 ] } },
{ "type": "Feature", "id": 552, "properties": { "CODE": "School - High", "NAME": "Lake Washington High School", "ADDRESS": "12033 NE 80th St", "ZIPCODE": "98033", "DISTRICT": "LAKE WASHINGTON" }, "geometry": { "type": "Point", "coordinates": [ -122.180866566694505, 47.673424415118582 ] } },
{ "type": "Feature", "id": 553, "properties": { "CODE": "School - Other facility", "NAME": "Administration Center-Kent", "ADDRESS": "12033 SE 256th St", "ZIPCODE": "98030", "DISTRICT": "KENT" }, "geometry": { "type": "Point", "coordinates": [ -122.179356595840289, 47.370908363351298 ] } },
{ "type": "Feature", "id": 554, "properties": { "CODE": "School - Elementary", "NAME": "Woodmoor Elementary School", "ADDRESS": "12225 NE 160th St", "ZIPCODE": "98011", "DISTRICT": "NORTHSHORE" }, "geometry": { "type": "Point", "coordinates": [ -122.176032020468924, 47.741952149163808 ] } },
{ "type": "Feature", "id": 555, "properties": { "CODE": "School - Elementary", "NAME": "Hilltop Elementary School", "ADDRESS": "12250 24th Ave S", "ZIPCODE": "98168", "DISTRICT": "HIGHLINE" }, "geometry": { "type": "Point", "coordinates": [ -122.301189190613897, 47.492836463356717 ] } },
{ "type": "Feature", "id": 556, "properties": { "CODE": "School - Elementary", "NAME": "St. Matthew School", "ADDRESS": "1230 NE 127th St", "ZIPCODE": "98125", "DISTRICT": "SEATTLE" }, "geometry": { "type": "Point", "coordinates": [ -122.313820029089499, 47.721722301240128 ] } },
{ "type": "Feature", "id": 557, "properties": { "CODE": "School - Elementary", "NAME": "Cherry Crest Elementary School", "ADDRESS": "12400 NE 32nd St", "ZIPCODE": "98005", "DISTRICT": "BELLEVUE" }, "geometry": { "type": "Point", "coordinates": [ -122.173701361824698, 47.640367571367264 ] } },
{ "type": "Feature", "id": 558, "properties": { "CODE": "School - Elementary", "NAME": "Cascade View Elementary School-Tukwila", "ADDRESS": "13601 32nd Ave S", "ZIPCODE": "98168", "DISTRICT": "TUKWILA" }, "geometry": { "type": "Point", "coordinates": [ -122.29231908413351, 47.48148382320182 ] } },
{ "type": "Feature", "id": 559, "properties": { "CODE": "School - K thru 12", "NAME": "Chrysalis School", "ADDRESS": "14241 NE Woodinville Duvall Rd", "ZIPCODE": "98072", "DISTRICT": "NORTHSHORE" }, "geometry": { "type": "Point", "coordinates": [ -122.148888130859632, 47.755012628920099 ] } },
{ "type": "Feature", "id": 560, "properties": { "CODE": "School - K thru 12", "NAME": "Woodinville Montessori School - Main Campus", "ADDRESS": "19102 North Creek Pkwy", "ZIPCODE": "98011", "DISTRICT": "NORTHSHORE" }, "geometry": { "type": "Point", "coordinates": [ -122.183289909820118, 47.766904200254501 ] } },
{ "type": "Feature", "id": 561, "properties": { "CODE": "School - Alternative", "NAME": "The Center High School", "ADDRESS": "305 Harrison St", "ZIPCODE": "98109", "DISTRICT": "SEATTLE" }, "geometry": { "type": "Point", "coordinates": [ -122.350857014293609, 47.6214095501389 ] } },
{ "type": "Feature", "id": 562, "properties": { "CODE": "School - Elementary", "NAME": "Alpac Elementary School", "ADDRESS": "310 Milwaukee Blvd N", "ZIPCODE": "98047", "DISTRICT": "AUBURN" }, "geometry": { "type": "Point", "coordinates": [ -122.248998426609774, 47.270990471637447 ] } },
{ "type": "Feature", "id": 563, "properties": { "CODE": "School - Junior High or Middle", "NAME": "Illahee Middle School", "ADDRESS": "36001 1st Ave S", "ZIPCODE": "98003", "DISTRICT": "FEDERAL WAY" }, "geometry": { "type": "Point", "coordinates": [ -122.335943071953068, 47.277493747209107 ] } },
{ "type": "Feature", "id": 564, "properties": { "CODE": "School - Alternative", "NAME": "Queen Anne Elementary School", "ADDRESS": "411 Boston St", "ZIPCODE": "98109", "DISTRICT": "SEATTLE" }, "geometry": { "type": "Point", "coordinates": [ -122.348970768887995, 47.637963582534027 ] } },
{ "type": "Feature", "id": 565, "properties": { "CODE": "School - Elementary", "NAME": "Lake Dolloff Elementary School", "ADDRESS": "4200 S 308th St", "ZIPCODE": "98001", "DISTRICT": "FEDERAL WAY" }, "geometry": { "type": "Point", "coordinates": [ -122.28070625483771, 47.326807238701079 ] } },
{ "type": "Feature", "id": 566, "properties": { "CODE": "School - High", "NAME": "Newport High School", "ADDRESS": "4333 Factoria Blvd SE", "ZIPCODE": "98006", "DISTRICT": "BELLEVUE" }, "geometry": { "type": "Point", "coordinates": [ -122.171791104241322, 47.567721348646607 ] } },
{ "type": "Feature", "id": 567, "properties": { "CODE": "School - Elementary", "NAME": "Waldorf School - Kinderhaus Campus", "ADDRESS": "4919 Woodlawn Ave N", "ZIPCODE": "98103", "DISTRICT": "SEATTLE" }, "geometry": { "type": "Point", "coordinates": [ -122.339784749629857, 47.664820118841099 ] } },
{ "type": "Feature", "id": 568, "properties": { "CODE": "School - Elementary", "NAME": "Clark Elementary School", "ADDRESS": "500 2nd Ave SE", "ZIPCODE": "98027", "DISTRICT": "ISSAQUAH" }, "geometry": { "type": "Point", "coordinates": [ -122.029618671898945, 47.524307292454488 ] } },
{ "type": "Feature", "id": 569, "properties": { "CODE": "School - Elementary", "NAME": "University Child Development School", "ADDRESS": "5062 9th Ave NE", "ZIPCODE": "98105", "DISTRICT": "SEATTLE" }, "geometry": { "type": "Point", "coordinates": [ -122.318068361285555, 47.666654481392527 ] } },
{ "type": "Feature", "id": 570, "properties": { "CODE": "School - Junior High or Middle", "NAME": "Issaquah Middle School", "ADDRESS": "600 2nd Ave SE", "ZIPCODE": "98027", "DISTRICT": "ISSAQUAH" }, "geometry": { "type": "Point", "coordinates": [ -122.028809211335556, 47.524488548764026 ] } },
{ "type": "Feature", "id": 571, "properties": { "CODE": "School - Elementary", "NAME": "Assumption St. Bridget School", "ADDRESS": "6220 32nd Ave NE", "ZIPCODE": "98115", "DISTRICT": "SEATTLE" }, "geometry": { "type": "Point", "coordinates": [ -122.292840952195888, 47.674910302917681 ] } },
{ "type": "Feature", "id": 572, "properties": { "CODE": "School - Alternative", "NAME": "Explorer Community School", "ADDRESS": "7040 208th Ave NE", "ZIPCODE": "98053", "DISTRICT": "LAKE WASHINGTON" }, "geometry": { "type": "Point", "coordinates": [ -122.05992494555737, 47.669995210542332 ] } },
{ "type": "Feature", "id": 573, "properties": { "CODE": "School - Elementary", "NAME": "Hazelwood Elementary School-Newcastle", "ADDRESS": "7100 116th Ave SE", "ZIPCODE": "98056", "DISTRICT": "RENTON" }, "geometry": { "type": "Point", "coordinates": [ -122.184220454472438, 47.538038449578337 ] } },
{ "type": "Feature", "id": 574, "properties": { "CODE": "School - High", "NAME": "Mount Si High School", "ADDRESS": "8651 Meadowbrook Way SE", "ZIPCODE": "98065", "DISTRICT": "SNOQUALMIE VALLEY" }, "geometry": { "type": "Point", "coordinates": [ -121.816887661846522, 47.522781189232028 ] } },
{ "type": "Feature", "id": 575, "properties": { "CODE": "School - K thru 12", "NAME": "The Bear Creek School", "ADDRESS": "8905 208th Ave NE", "ZIPCODE": "98053", "DISTRICT": "LAKE WASHINGTON" }, "geometry": { "type": "Point", "coordinates": [ -122.065521853782585, 47.68126407580872 ] } },
{ "type": "Feature", "id": 576, "properties": { "CODE": "School - Elementary", "NAME": "Sacred Heart School", "ADDRESS": "9450 NE 14th St", "ZIPCODE": "98004", "DISTRICT": "BELLEVUE" }, "geometry": { "type": "Point", "coordinates": [ -122.212255892714765, 47.624171231125331 ] } },
{ "type": "Feature", "id": 577, "properties": { "CODE": "School - Elementary", "NAME": "Our Lady of Lourdes School", "ADDRESS": "10243 12th Ave S", "ZIPCODE": "98168", "DISTRICT": "HIGHLINE" }, "geometry": { "type": "Point", "coordinates": [ -122.318520661202768, 47.510872792156462 ] } },
{ "type": "Feature", "id": 578, "properties": { "CODE": "School - Elementary", "NAME": "Westside School", "ADDRESS": "10404 34th Ave SW", "ZIPCODE": "98146", "DISTRICT": "SEATTLE" }, "geometry": { "type": "Point", "coordinates": [ -122.374166943650025, 47.509594011677443 ] } },
{ "type": "Feature", "id": 579, "properties": { "CODE": "School - Elementary", "NAME": "Viewlands Elementary School", "ADDRESS": "10525 3rd Ave NW", "ZIPCODE": "98177", "DISTRICT": "SEATTLE" }, "geometry": { "type": "Point", "coordinates": [ -122.361127428539902, 47.705973308097086 ] } },
{ "type": "Feature", "id": 580, "properties": { "CODE": "School - College or University", "NAME": "City University-Bellevue", "ADDRESS": "521 Wall St", "ZIPCODE": "98121", "DISTRICT": "BELLEVUE" }, "geometry": { "type": "Point", "coordinates": [ -122.344334924633188, 47.617342170201219 ] } },
{ "type": "Feature", "id": 581, "properties": { "CODE": "School - Elementary", "NAME": "Ella Baker Elementary School", "ADDRESS": "9595 Eastridge Dr NE", "ZIPCODE": "98053", "DISTRICT": "LAKE WASHINGTON" }, "geometry": { "type": "Point", "coordinates": [ -122.01106189310903, 47.683860676971619 ] } },
{ "type": "Feature", "id": 582, "properties": { "CODE": "School - Elementary", "NAME": "Woodin Elementary School", "ADDRESS": "12950 NE 195th St", "ZIPCODE": "98011", "DISTRICT": "NORTHSHORE" }, "geometry": { "type": "Point", "coordinates": [ -122.167507758709078, 47.768042482463024 ] } },
{ "type": "Feature", "id": 583, "properties": { "CODE": "School - High", "NAME": "The Northwest School", "ADDRESS": "1415 Summit Ave", "ZIPCODE": "98122", "DISTRICT": "SEATTLE" }, "geometry": { "type": "Point", "coordinates": [ -122.325944049026617, 47.613392340022308 ] } },
{ "type": "Feature", "id": 584, "properties": { "CODE": "School - Junior High or Middle", "NAME": "Lakota Middle School", "ADDRESS": "1415 SW 314th St", "ZIPCODE": "98023", "DISTRICT": "FEDERAL WAY" }, "geometry": { "type": "Point", "coordinates": [ -122.354112295858087, 47.320160437132955 ] } },
{ "type": "Feature", "id": 585, "properties": { "CODE": "School - High", "NAME": "Ballard High School", "ADDRESS": "1418 NW 65th St", "ZIPCODE": "98117", "DISTRICT": "SEATTLE" }, "geometry": { "type": "Point", "coordinates": [ -122.375443437829901, 47.676706772887727 ] } },
{ "type": "Feature", "id": 586, "properties": { "CODE": "School - Alternative", "NAME": "Jubilee REACH", "ADDRESS": "14200 SE 13th Pl", "ZIPCODE": "98007", "DISTRICT": "BELLEVUE" }, "geometry": { "type": "Point", "coordinates": [ -122.151830997906373, 47.599598759465188 ] } },
{ "type": "Feature", "id": 587, "properties": { "CODE": "School - Elementary", "NAME": "Stevenson Elementary School", "ADDRESS": "14220 NE 8th St", "ZIPCODE": "98007", "DISTRICT": "BELLEVUE" }, "geometry": { "type": "Point", "coordinates": [ -122.150054103432268, 47.617973557774775 ] } },
{ "type": "Feature", "id": 588, "properties": { "CODE": "School - Junior High or Middle", "NAME": "Seattle Academy - Middle School", "ADDRESS": "1432 15th Ave", "ZIPCODE": "98122", "DISTRICT": "SEATTLE" }, "geometry": { "type": "Point", "coordinates": [ -122.312525416078998, 47.613945952931694 ] } },
{ "type": "Feature", "id": 589, "properties": { "CODE": "School - Alternative", "NAME": "F.A. McDonald International Elementary School", "ADDRESS": "144 NE 54th St", "ZIPCODE": "98105", "DISTRICT": "SEATTLE" }, "geometry": { "type": "Point", "coordinates": [ -122.326594703626441, 47.668278714326966 ] } },
{ "type": "Feature", "id": 590, "properties": { "CODE": "School - Elementary", "NAME": "Greenwood Elementary School", "ADDRESS": "144 NW 80th St", "ZIPCODE": "98117", "DISTRICT": "SEATTLE" }, "geometry": { "type": "Point", "coordinates": [ -122.360045828635734, 47.687281731962251 ] } },
{ "type": "Feature", "id": 591, "properties": { "CODE": "School - College or University", "NAME": "Bastyr University", "ADDRESS": "14500 Juanita Dr NE", "ZIPCODE": "98028", "DISTRICT": "LAKE WASHINGTON" }, "geometry": { "type": "Point", "coordinates": [ -122.251364381375168, 47.730198975681688 ] } },
{ "type": "Feature", "id": 592, "properties": { "CODE": "School - Elementary", "NAME": "Seahurst Elementary School", "ADDRESS": "14603 14th Ave SW", "ZIPCODE": "98166", "DISTRICT": "HIGHLINE" }, "geometry": { "type": "Point", "coordinates": [ -122.353914665822614, 47.471124894148822 ] } },
{ "type": "Feature", "id": 593, "properties": { "CODE": "School - Elementary", "NAME": "Eastside Christian School", "ADDRESS": "14615 SE 22nd St", "ZIPCODE": "98007", "DISTRICT": "BELLEVUE" }, "geometry": { "type": "Point", "coordinates": [ -122.14485904555805, 47.590452891079785 ] } },
{ "type": "Feature", "id": 594, "properties": { "CODE": "School - Alternative", "NAME": "Big Picture School", "ADDRESS": "14844 SE 22nd St", "ZIPCODE": "98007", "DISTRICT": "BELLEVUE" }, "geometry": { "type": "Point", "coordinates": [ -122.14113887414203, 47.592088760954368 ] } },
{ "type": "Feature", "id": 595, "properties": { "CODE": "School - Elementary", "NAME": "Bright Water School - Waldorf", "ADDRESS": "1501 10th Ave E", "ZIPCODE": "98102", "DISTRICT": "SEATTLE" }, "geometry": { "type": "Point", "coordinates": [ -122.320576983516602, 47.632749845919456 ] } },
{ "type": "Feature", "id": 596, "properties": { "CODE": "School - Elementary", "NAME": "Apollo Elementary School", "ADDRESS": "15025 SE 117th St", "ZIPCODE": "98059", "DISTRICT": "ISSAQUAH" }, "geometry": { "type": "Point", "coordinates": [ -122.138864052632428, 47.497347084839063 ] } },
{ "type": "Feature", "id": 597, "properties": { "CODE": "School - Elementary", "NAME": "Moorlands Elementary School", "ADDRESS": "15115 84th Ave NE", "ZIPCODE": "98028", "DISTRICT": "NORTHSHORE" }, "geometry": { "type": "Point", "coordinates": [ -122.230856375880293, 47.738631281740403 ] } },
{ "type": "Feature", "id": 598, "properties": { "CODE": "School - Elementary", "NAME": "The Evergreen School", "ADDRESS": "15201 Meridian Ave N", "ZIPCODE": "98133", "DISTRICT": "SHORELINE" }, "geometry": { "type": "Point", "coordinates": [ -122.335275600911828, 47.738587441130228 ] } },
{ "type": "Feature", "id": 599, "properties": { "CODE": "School - Other facility", "NAME": "Support Service Center", "ADDRESS": "15212 NE 95th St", "ZIPCODE": "98052", "DISTRICT": "LAKE WASHINGTON" }, "geometry": { "type": "Point", "coordinates": [ -122.137630547977381, 47.686789743479657 ] } },
{ "type": "Feature", "id": 600, "properties": { "CODE": "School - Elementary", "NAME": "St. Francis of Assisi School", "ADDRESS": "15216 21st Ave SW", "ZIPCODE": "98166", "DISTRICT": "HIGHLINE" }, "geometry": { "type": "Point", "coordinates": [ -122.360185667374509, 47.465967940263575 ] } },
{ "type": "Feature", "id": 601, "properties": { "CODE": "School - Alternative", "NAME": "Fircrest School", "ADDRESS": "15230 15th Ave NE", "ZIPCODE": "98155", "DISTRICT": "SHORELINE" }, "geometry": { "type": "Point", "coordinates": [ -122.30909972800093, 47.740360405596434 ] } },
{ "type": "Feature", "id": 602, "properties": { "CODE": "School - High", "NAME": "Shorecrest High School", "ADDRESS": "15343 25th Ave NE", "ZIPCODE": "98155", "DISTRICT": "SHORELINE" }, "geometry": { "type": "Point", "coordinates": [ -122.304733797948813, 47.741214719205907 ] } },
{ "type": "Feature", "id": 603, "properties": { "CODE": "School - Elementary", "NAME": "Northwest School for Deaf and Hard-of-Hearing Children", "ADDRESS": "15303 Westminster Way N", "ZIPCODE": "98133", "DISTRICT": "SHORELINE" }, "geometry": { "type": "Point", "coordinates": [ -122.350317197658399, 47.740730071105133 ] } },
{ "type": "Feature", "id": 604, "properties": { "CODE": "School - High", "NAME": "Inglemoor High School", "ADDRESS": "15500 Simonds Rd NE", "ZIPCODE": "98028", "DISTRICT": "NORTHSHORE" }, "geometry": { "type": "Point", "coordinates": [ -122.222788823705272, 47.740640953978676 ] } },
{ "type": "Feature", "id": 605, "properties": { "CODE": "School - Elementary", "NAME": "Maple Hills Elementary School", "ADDRESS": "15644 204th Ave SE", "ZIPCODE": "98059", "DISTRICT": "ISSAQUAH" }, "geometry": { "type": "Point", "coordinates": [ -122.06631263045287, 47.462193345137393 ] } },
{ "type": "Feature", "id": 606, "properties": { "CODE": "School - Other facility", "NAME": "Administration Center-Highline", "ADDRESS": "15675 Ambaum Blvd SW", "ZIPCODE": "98166", "DISTRICT": "HIGHLINE" }, "geometry": { "type": "Point", "coordinates": [ -122.337960568573607, 47.462275187891343 ] } },
{ "type": "Feature", "id": 607, "properties": { "CODE": "School - K thru 12", "NAME": "Renton Christian Schools", "ADDRESS": "15717 152nd Ave SE", "ZIPCODE": "98058", "DISTRICT": "RENTON" }, "geometry": { "type": "Point", "coordinates": [ -122.219462625379094, 47.484881097005704 ] } },
{ "type": "Feature", "id": 608, "properties": { "CODE": "School - Elementary", "NAME": "Jewish Day School", "ADDRESS": "15749 NE 4th St", "ZIPCODE": "98008", "DISTRICT": "BELLEVUE" }, "geometry": { "type": "Point", "coordinates": [ -122.128301942396931, 47.612764066696109 ] } },
{ "type": "Feature", "id": 609, "properties": { "CODE": "School - Alternative", "NAME": "Harbor School", "ADDRESS": "15920 Vashon Hwy SW", "ZIPCODE": "98070", "DISTRICT": "VASHON ISLAND" }, "geometry": { "type": "Point", "coordinates": [ -122.458816200779069, 47.462494704475553 ] } },
{ "type": "Feature", "id": 610, "properties": { "CODE": "School - Elementary", "NAME": "Cottage Lake Elementary School", "ADDRESS": "15940 Avondale Rd NE", "ZIPCODE": "98077", "DISTRICT": "NORTHSHORE" }, "geometry": { "type": "Point", "coordinates": [ -122.079471557071798, 47.744720286609066 ] } },
{ "type": "Feature", "id": 611, "properties": { "CODE": "School - Junior High or Middle", "NAME": "Asa Mercer Middle School", "ADDRESS": "1600 S Columbian Way", "ZIPCODE": "98108", "DISTRICT": "SEATTLE" }, "geometry": { "type": "Point", "coordinates": [ -122.312082898119769, 47.564132363195625 ] } },
{ "type": "Feature", "id": 612, "properties": { "CODE": "School - High", "NAME": "Bellevue Christian High School", "ADDRESS": "1601 98th Ave NE", "ZIPCODE": "98004", "DISTRICT": "BELLEVUE" }, "geometry": { "type": "Point", "coordinates": [ -122.211044871238997, 47.625765247158661 ] } },
{ "type": "Feature", "id": 613, "properties": { "CODE": "School - Elementary", "NAME": "Tiffany Park Elementary School", "ADDRESS": "1601 Lake Youngs Way SE", "ZIPCODE": "98058", "DISTRICT": "RENTON" }, "geometry": { "type": "Point", "coordinates": [ -122.178554138359132, 47.465198284012722 ] } },
{ "type": "Feature", "id": 614, "properties": { "CODE": "School - Elementary", "NAME": "Evergreen Academy", "ADDRESS": "16017 118th Pl NE", "ZIPCODE": "98011", "DISTRICT": "NORTHSHORE" }, "geometry": { "type": "Point", "coordinates": [ -122.182776110291599, 47.744310117837863 ] } },
{ "type": "Feature", "id": 615, "properties": { "CODE": "School - Junior High or Middle", "NAME": "Tillicum Middle School", "ADDRESS": "16020 SE 16th St", "ZIPCODE": "98008", "DISTRICT": "BELLEVUE" }, "geometry": { "type": "Point", "coordinates": [ -122.125403821856551, 47.59876408562301 ] } },
{ "type": "Feature", "id": 616, "properties": { "CODE": "School - Elementary", "NAME": "Cascade Elementary School", "ADDRESS": "16022 116th Ave SE", "ZIPCODE": "98058", "DISTRICT": "RENTON" }, "geometry": { "type": "Point", "coordinates": [ -122.185168857739882, 47.458632308737911 ] } },
{ "type": "Feature", "id": 617, "properties": { "CODE": "School - Junior High or Middle", "NAME": "Kellogg Middle School", "ADDRESS": "16045 25th Ave NE", "ZIPCODE": "98155", "DISTRICT": "SHORELINE" }, "geometry": { "type": "Point", "coordinates": [ -122.303019992020552, 47.745722682000363 ] } },
{ "type": "Feature", "id": 618, "properties": { "CODE": "School - College or University", "NAME": "Shoreline Community College", "ADDRESS": "16101 Greenwood Ave N", "ZIPCODE": "98133", "DISTRICT": "SHORELINE" }, "geometry": { "type": "Point", "coordinates": [ -122.359243669273155, 47.747770411409519 ] } },
{ "type": "Feature", "id": 619, "properties": { "CODE": "School - Elementary", "NAME": "McGilvra Elementary School", "ADDRESS": "1617 38th Ave E", "ZIPCODE": "98112", "DISTRICT": "SEATTLE" }, "geometry": { "type": "Point", "coordinates": [ -122.284831303565795, 47.634077701802404 ] } },
{ "type": "Feature", "id": 620, "properties": { "CODE": "School - Elementary", "NAME": "Gregory Heights Elementary School", "ADDRESS": "16201 16th Ave SW", "ZIPCODE": "98166", "DISTRICT": "HIGHLINE" }, "geometry": { "type": "Point", "coordinates": [ -122.355957888388247, 47.458133197753838 ] } },
{ "type": "Feature", "id": 621, "properties": { "CODE": "School - Junior High or Middle", "NAME": "Sylvester Middle School", "ADDRESS": "16222 Sylvester Rd SW", "ZIPCODE": "98166", "DISTRICT": "HIGHLINE" }, "geometry": { "type": "Point", "coordinates": [ -122.339868033178618, 47.457059243101256 ] } },
{ "type": "Feature", "id": 622, "properties": { "CODE": "School - Elementary", "NAME": "Calvary Luthern", "ADDRESS": "16239 NE 6th St", "ZIPCODE": "98008", "DISTRICT": "BELLEVUE" }, "geometry": { "type": "Point", "coordinates": [ -122.122211482066291, 47.614886874380723 ] } },
{ "type": "Feature", "id": 623, "properties": { "CODE": "School - High", "NAME": "Interlake High School", "ADDRESS": "16245 NE 24th St", "ZIPCODE": "98008", "DISTRICT": "BELLEVUE" }, "geometry": { "type": "Point", "coordinates": [ -122.124115581971964, 47.62936432562465 ] } },
{ "type": "Feature", "id": 624, "properties": { "CODE": "School - Other facility", "NAME": "Administration Center-Lake Washington", "ADDRESS": "16250 NE 74th St", "ZIPCODE": "98052", "DISTRICT": "LAKE WASHINGTON" }, "geometry": { "type": "Point", "coordinates": [ -122.123489138343857, 47.670993042613397 ] } },
{ "type": "Feature", "id": 625, "properties": { "CODE": "School - Alternative", "NAME": "Transition Academy", "ADDRESS": "16315 NE 87th St", "ZIPCODE": "98052", "DISTRICT": "LAKE WASHINGTON" }, "geometry": { "type": "Point", "coordinates": [ -122.122499468418852, 47.679372429828753 ] } },
{ "type": "Feature", "id": 626, "properties": { "CODE": "School - Junior High or Middle", "NAME": "Mattson Middle School", "ADDRESS": "16400 SE 251st St", "ZIPCODE": "98042", "DISTRICT": "KENT" }, "geometry": { "type": "Point", "coordinates": [ -122.12024002102045, 47.378280099020706 ] } },
{ "type": "Feature", "id": 627, "properties": { "CODE": "School - Elementary", "NAME": "Spiritridge Elementary School", "ADDRESS": "16401 SE 24th St", "ZIPCODE": "98008", "DISTRICT": "BELLEVUE" }, "geometry": { "type": "Point", "coordinates": [ -122.120066074752344, 47.587818701659863 ] } },
{ "type": "Feature", "id": 628, "properties": { "CODE": "School - Elementary", "NAME": "Lake View Elementary School", "ADDRESS": "16401 SE 318th St", "ZIPCODE": "98092", "DISTRICT": "AUBURN" }, "geometry": { "type": "Point", "coordinates": [ -122.122274773605369, 47.316581536321017 ] } },
{ "type": "Feature", "id": 629, "properties": { "CODE": "School - Elementary", "NAME": "Wellington Elementary School", "ADDRESS": "16501 NE 195th St", "ZIPCODE": "98072", "DISTRICT": "NORTHSHORE" }, "geometry": { "type": "Point", "coordinates": [ -122.12026095895385, 47.767680166077142 ] } },
{ "type": "Feature", "id": 630, "properties": { "CODE": "School - Elementary", "NAME": "Ridgecrest Elementary School", "ADDRESS": "16516 10th Ave NE", "ZIPCODE": "98155", "DISTRICT": "SHORELINE" }, "geometry": { "type": "Point", "coordinates": [ -122.31765564088407, 47.749144393792122 ] } },
{ "type": "Feature", "id": 631, "properties": { "CODE": "School - Elementary", "NAME": "Bennett Elementary School", "ADDRESS": "17900 NE 16th St", "ZIPCODE": "98008", "DISTRICT": "BELLEVUE" }, "geometry": { "type": "Point", "coordinates": [ -122.101974159339818, 47.624740952836383 ] } },
{ "type": "Feature", "id": 632, "properties": { "CODE": "School - Elementary", "NAME": "Kent Elementary School", "ADDRESS": "24700 64th Ave S", "ZIPCODE": "98032", "DISTRICT": "KENT" }, "geometry": { "type": "Point", "coordinates": [ -122.2519397125551, 47.380324056752151 ] } },
{ "type": "Feature", "id": 633, "properties": { "CODE": "School - Other facility", "NAME": "Enumclaw Administration", "ADDRESS": "2929 McDougall Ave", "ZIPCODE": "98022", "DISTRICT": "ENUMCLAW" }, "geometry": { "type": "Point", "coordinates": [ -122.008773953590747, 47.188550888501759 ] } },
{ "type": "Feature", "id": 634, "properties": { "CODE": "School - Junior High or Middle", "NAME": "Billings Middle School", "ADDRESS": "7217 Woodlawn Ave NE", "ZIPCODE": "98115", "DISTRICT": "SEATTLE" }, "geometry": { "type": "Point", "coordinates": [ -122.325223294029982, 47.68088794435932 ] } },
{ "type": "Feature", "id": 635, "properties": { "CODE": "School - Elementary", "NAME": "Northwest Montessori - Wedgwood", "ADDRESS": "7400 25th Ave NE", "ZIPCODE": "98115", "DISTRICT": "SEATTLE" }, "geometry": { "type": "Point", "coordinates": [ -122.30033514136467, 47.682236596564735 ] } },
{ "type": "Feature", "id": 636, "properties": { "CODE": "School - Alternative", "NAME": "Thornton Creek Elementary School", "ADDRESS": "7711 43rd Ave NE", "ZIPCODE": "98115", "DISTRICT": "SEATTLE" }, "geometry": { "type": "Point", "coordinates": [ -122.282822426683282, 47.685575595988077 ] } },
{ "type": "Feature", "id": 637, "properties": { "CODE": "School - Junior High or Middle", "NAME": "Islander Middle School", "ADDRESS": "8225 SE 72nd St", "ZIPCODE": "98040", "DISTRICT": "MERCER ISLAND" }, "geometry": { "type": "Point", "coordinates": [ -122.228325688119511, 47.537686519202289 ] } },
{ "type": "Feature", "id": 638, "properties": { "CODE": "School - High", "NAME": "Bothell High School", "ADDRESS": "9130 NE 180th St", "ZIPCODE": "98011", "DISTRICT": "NORTHSHORE" }, "geometry": { "type": "Point", "coordinates": [ -122.218846737904272, 47.759860389053799 ] } },
{ "type": "Feature", "id": 639, "properties": { "CODE": "School - Elementary", "NAME": "The Perkins School", "ADDRESS": "9005 Roosevelt Way NE", "ZIPCODE": "98115", "DISTRICT": "SEATTLE" }, "geometry": { "type": "Point", "coordinates": [ -122.318016982654669, 47.69427251109677 ] } },
{ "type": "Feature", "id": 640, "properties": { "CODE": "School - College or University", "NAME": "Green River College Auburn Center", "ADDRESS": "1221 D St NE", "ZIPCODE": "98002", "DISTRICT": null }, "geometry": { "type": "Point", "coordinates": [ -122.22513001375728, 47.318564744929475 ] } },
{ "type": "Feature", "id": 641, "properties": { "CODE": "School - K thru 12", "NAME": "Muckleshoot Tribal School", "ADDRESS": "15209 SE 376th St", "ZIPCODE": "98092", "DISTRICT": "AUBURN" }, "geometry": { "type": "Point", "coordinates": [ -122.138094005144723, 47.26425709533563 ] } },
{ "type": "Feature", "id": 642, "properties": { "CODE": "School - College or University", "NAME": "Muckleshoot Tribal College", "ADDRESS": "39811 Auburn-Enumclaw Road SE", "ZIPCODE": "98092", "DISTRICT": "AUBURN" }, "geometry": { "type": "Point", "coordinates": [ -122.116466565023401, 47.244478360682962 ] } }
]
}
